[
    {
      "_id": "6399f72071c0238ae6f3cbdd",
      "BusinessName": "The Ness Cafe",
      "AddressLine2": "London",
      "AddressLine3": "",
      "PostCode": "SE2 9AQ",
      "RatingValue": "5",
      "Geocode_Longitude": 0.133478,
      "Geocode_Latitude": 51.506094
    },
    {
      "_id": "6399f72071c0238ae6f3cd6f",
      "BusinessName": "1 Life Cafe",
      "AddressLine2": "Donnington Road",
      "PostCode": "NW10 3QX",
      "RatingValue": "5",
      "Geocode_Longitude": -0.231938,
      "Geocode_Latitude": 51.54048,
      "AddressLine3": "London"
    },
    {
      "_id": "6399f72071c0238ae6f3cd72",
      "BusinessName": "244 Cafe",
      "AddressLine2": "London",
      "PostCode": "NW10 4TD",
      "RatingValue": "3",
      "Geocode_Longitude": -0.240915,
      "Geocode_Latitude": 51.53317,
      "AddressLine3": ""
    },
    {
      "_id": "6399f72071c0238ae6f3cd9f",
      "BusinessName": "Abbey Point Cafe & Hotel",
      "AddressLine2": "London",
      "PostCode": "NW10 7DD",
      "RatingValue": "5",
      "Geocode_Longitude": -0.275306,
      "Geocode_Latitude": 51.534984,
      "AddressLine3": ""
    },
    {
      "_id": "6399f72071c0238ae6f3cebf",
      "BusinessName": "Arthurs Cafe",
      "AddressLine2": "Station Terrace",
      "PostCode": "NW10 5RU",
      "RatingValue": "5",
      "Geocode_Longitude": -0.219766,
      "Geocode_Latitude": 51.534218,
      "AddressLine3": "London"
    },
    {
      "_id": "6399f72071c0238ae6f3cef5",
      "BusinessName": "Ayan Cafetaria Limited",
      "AddressLine2": "London",
      "PostCode": "NW10 9NP",
      "RatingValue": "3",
      "Geocode_Longitude": -0.248437,
      "Geocode_Latitude": 51.547921,
      "AddressLine3": ""
    },
    {
      "_id": "6399f72071c0238ae6f3cefe",
      "BusinessName": "Backyard Lebanese Cafe & Shisha Lounge",
      "AddressLine2": "London",
      "PostCode": "NW9 8SD",
      "RatingValue": "4",
      "Geocode_Longitude": -0.262658,
      "Geocode_Latitude": 51.564229,
      "AddressLine3": ""
    },
    {
      "_id": "6399f72071c0238ae6f3cf04",
      "BusinessName": "Bacovia Supermarket & Cafe",
      "AddressLine2": "London",
      "PostCode": "NW10 0AD",
      "RatingValue": "4",
      "Geocode_Longitude": -0.251142,
      "Geocode_Latitude": 51.560156,
      "AddressLine3": ""
    },
    {
      "_id": "6399f72071c0238ae6f3cf9d",
      "BusinessName": "Big Al's Cafe Grill",
      "AddressLine2": "London",
      "PostCode": "NW10 9EP",
      "RatingValue": "5",
      "Geocode_Longitude": -0.248259,
      "Geocode_Latitude": 51.54845,
      "AddressLine3": ""
    },
    {
      "_id": "6399f72071c0238ae6f3cfb2",
      "BusinessName": "Bijou Cafe Ltd",
      "AddressLine2": "London",
      "PostCode": "NW2 4RS",
      "RatingValue": "5",
      "Geocode_Longitude": -0.22013500332832,
      "Geocode_Latitude": 51.5495300292969,
      "AddressLine3": ""
    },
    {
      "_id": "6399f72071c0238ae6f3cfeb",
      "BusinessName": "Bob's Cafe",
      "AddressLine2": "Kilburn",
      "PostCode": "NW6 6NH",
      "RatingValue": "4",
      "Geocode_Longitude": -0.205253,
      "Geocode_Latitude": 51.535884,
      "AddressLine3": "London"
    },
    {
      "_id": "6399f72171c0238ae6f3d0bd",
      "BusinessName": "Cafe - Carwa Banadir Business Centre",
      "AddressLine2": "London",
      "PostCode": "NW10 4SL",
      "RatingValue": "2",
      "Geocode_Longitude": -0.245355,
      "Geocode_Latitude": 51.535826,
      "AddressLine3": ""
    },
    {
      "_id": "6399f72171c0238ae6f3d0c3",
      "BusinessName": "Cafe Du Coin",
      "AddressLine2": "London",
      "PostCode": "NW10 8TX",
      "RatingValue": "4",
      "Geocode_Longitude": -0.2552904,
      "Geocode_Latitude": 51.5375041,
      "AddressLine3": ""
    },
    {
      "_id": "6399f72171c0238ae6f3d0c6",
      "BusinessName": "Cafe Express",
      "AddressLine2": "London",
      "PostCode": "NW10 2DS",
      "RatingValue": "4",
      "Geocode_Longitude": -0.24426,
      "Geocode_Latitude": 51.549298,
      "AddressLine3": ""
    },
    {
      "_id": "6399f72171c0238ae6f3d0c9",
      "BusinessName": "Cafe Florya",
      "AddressLine2": "London",
      "PostCode": "NW9 8SL",
      "RatingValue": "5",
      "Geocode_Longitude": -0.261973,
      "Geocode_Latitude": 51.574237,
      "AddressLine3": ""
    },
    {
      "_id": "6399f72171c0238ae6f3d0d2",
      "BusinessName": "Cafe Plus",
      "AddressLine2": "Kilburn",
      "PostCode": "NW6 7TA",
      "RatingValue": "4",
      "Geocode_Longitude": -0.202167,
      "Geocode_Latitude": 51.541017,
      "AddressLine3": "London"
    },
    {
      "_id": "6399f72171c0238ae6f3d0d5",
      "BusinessName": "Cafe Prego",
      "AddressLine2": "London",
      "PostCode": "NW2 3JG",
      "RatingValue": "4",
      "Geocode_Longitude": -0.213744,
      "Geocode_Latitude": 51.555069,
      "AddressLine3": ""
    },
    {
      "_id": "6399f72171c0238ae6f3d0d8",
      "BusinessName": "Cafe Rossio",
      "AddressLine2": "London",
      "PostCode": "NW10 5NL",
      "RatingValue": "3",
      "Geocode_Longitude": -0.232454,
      "Geocode_Latitude": 51.532008,
      "AddressLine3": ""
    },
    {
      "_id": "6399f72171c0238ae6f3d2c7",
      "BusinessName": "Crazy Bakery (Cafe and Bakery)",
      "AddressLine2": "London",
      "PostCode": "NW10 5NY",
      "RatingValue": "5",
      "Geocode_Longitude": -0.229126,
      "Geocode_Latitude": 51.530457,
      "AddressLine3": ""
    },
    {
      "_id": "6399f72171c0238ae6f3d2cd",
      "BusinessName": "Cricklewood Boxing Club - Cafe",
      "AddressLine2": "Cricklewood",
      "PostCode": "NW2 6JP",
      "RatingValue": "3",
      "Geocode_Longitude": -0.222017,
      "Geocode_Latitude": 51.562308,
      "AddressLine3": "London"
    },
    {
      "_id": "6399f72171c0238ae6f3d2dc",
      "BusinessName": "Crown Cafe",
      "AddressLine2": "Barretts Green Road",
      "PostCode": "NW10 7AE",
      "RatingValue": "4",
      "Geocode_Longitude": -0.26340499520302,
      "Geocode_Latitude": 51.5339889526367,
      "AddressLine3": "London"
    },
    {
      "_id": "6399f72171c0238ae6f3dea9",
      "BusinessName": "Roses Bistro Cafe",
      "AddressLine2": "London",
      "PostCode": "NW6 7JN",
      "RatingValue": "5",
      "Geocode_Longitude": -0.199304,
      "Geocode_Latitude": 51.542673,
      "AddressLine3": ""
    },
    {
      "_id": "6399f72171c0238ae6f3deb8",
      "BusinessName": "Roundwood Park Cafe",
      "AddressLine2": "Harlesden Road",
      "PostCode": "NW10 3SH",
      "RatingValue": "5",
      "Geocode_Longitude": -0.2399699985981,
      "Geocode_Latitude": 51.5408630371094,
      "AddressLine3": "London"
    },
    {
      "_id": "6399f72171c0238ae6f3d34b",
      "BusinessName": "Dempsey's Cafe",
      "AddressLine2": "London",
      "PostCode": "NW10 2QG",
      "RatingValue": "5",
      "Geocode_Longitude": -0.225238,
      "Geocode_Latitude": 51.547753,
      "AddressLine3": ""
    },
    {
      "_id": "6399f72171c0238ae6f3d3d5",
      "BusinessName": "Early's Cafe",
      "AddressLine2": "London",
      "PostCode": "NW2 3HP",
      "RatingValue": "4",
      "Geocode_Longitude": -0.21728,
      "Geocode_Latitude": 51.558001,
      "AddressLine3": ""
    },
    {
      "_id": "6399f72171c0238ae6f3df99",
      "BusinessName": "Saucy Soca Cafe",
      "AddressLine2": "140 Carlton Vale",
      "PostCode": "NW6 5HE",
      "RatingValue": "5",
      "Geocode_Longitude": -0.19634400308132,
      "Geocode_Latitude": 51.5325546264648,
      "AddressLine3": "London"
    },
    {
      "_id": "6399f72171c0238ae6f3d411",
      "BusinessName": "Ellas Cafe",
      "AddressLine2": "London",
      "PostCode": "NW10 2PJ",
      "RatingValue": "5",
      "Geocode_Longitude": -0.233153,
      "Geocode_Latitude": 51.547449,
      "AddressLine3": ""
    },
    {
      "_id": "6399f72171c0238ae6f3d444",
      "BusinessName": "Europe Cafe",
      "AddressLine2": "London",
      "PostCode": "NW10 9NP",
      "RatingValue": "5",
      "Geocode_Longitude": -0.24835,
      "Geocode_Latitude": 51.547948,
      "AddressLine3": ""
    },
    {
      "_id": "6399f72171c0238ae6f3d462",
      "BusinessName": "Family Cafe Restaurant",
      "AddressLine2": "Kilburn",
      "PostCode": "NW6 7TH",
      "RatingValue": "4",
      "Geocode_Longitude": -0.205493,
      "Geocode_Latitude": 51.541527,
      "AddressLine3": "London"
    },
    {
      "_id": "6399f72171c0238ae6f3e008",
      "BusinessName": "Sheila's Cafe",
      "AddressLine2": "London",
      "PostCode": "NW2 3HP",
      "RatingValue": "5",
      "Geocode_Longitude": -0.21728,
      "Geocode_Latitude": 51.558001,
      "AddressLine3": ""
    },
    {
      "_id": "6399f72171c0238ae6f3e083",
      "BusinessName": "Sonara Cafe & Kitchen",
      "AddressLine2": "London",
      "PostCode": "NW10 5ES",
      "RatingValue": "5",
      "Geocode_Longitude": -0.225977,
      "Geocode_Latitude": 51.533565,
      "AddressLine3": ""
    },
    {
      "_id": "6399f72171c0238ae6f3d56a",
      "BusinessName": "Gabriel's Cafe",
      "AddressLine2": "Walm Lane",
      "PostCode": "NW2 4RX",
      "RatingValue": "4",
      "Geocode_Longitude": -0.2179,
      "Geocode_Latitude": 51.552102,
      "AddressLine3": "London"
    },
    {
      "_id": "6399f72171c0238ae6f3e10d",
      "BusinessName": "Stables Cafe",
      "AddressLine2": "Dollis Hill Lane",
      "PostCode": "NW2 6HT",
      "RatingValue": "5",
      "Geocode_Longitude": -0.23688,
      "Geocode_Latitude": 51.559987,
      "AddressLine3": "London"
    },
    {
      "_id": "6399f72171c0238ae6f3e119",
      "BusinessName": "Star Cafe",
      "AddressLine2": "Maida Hill",
      "PostCode": "W9 3EG",
      "RatingValue": "5",
      "Geocode_Longitude": -0.205752,
      "Geocode_Latitude": 51.533105,
      "AddressLine3": "London"
    },
    {
      "_id": "6399f72171c0238ae6f3e131",
      "BusinessName": "Station Cafe",
      "AddressLine2": "17 Station Terrace",
      "PostCode": "NW10 5RX",
      "RatingValue": "4",
      "Geocode_Longitude": -0.219531,
      "Geocode_Latitude": 51.53398,
      "AddressLine3": "London"
    },
    {
      "_id": "6399f72171c0238ae6f3e1b8",
      "BusinessName": "Sunrise Cafe",
      "AddressLine2": "London",
      "PostCode": "NW10 9NH",
      "RatingValue": "1",
      "Geocode_Longitude": -0.25017,
      "Geocode_Latitude": 51.547129,
      "AddressLine3": ""
    },
    {
      "_id": "6399f72271c0238ae6f3e31a",
      "BusinessName": "The Hills,  Cafe and Bakery",
      "AddressLine2": "London",
      "PostCode": "NW10 1DY",
      "RatingValue": "1",
      "Geocode_Longitude": -0.2430872,
      "Geocode_Latitude": 51.5529423,
      "AddressLine3": ""
    },
    {
      "_id": "6399f72171c0238ae6f3d6ed",
      "BusinessName": "Hugos Cafe",
      "AddressLine2": "London",
      "PostCode": "NW6 6RA",
      "RatingValue": "4",
      "Geocode_Longitude": -0.203578,
      "Geocode_Latitude": 51.537064,
      "AddressLine3": ""
    },
    {
      "_id": "6399f72171c0238ae6f3d717",
      "BusinessName": "IKEA-Restaurant/Cafe/Bistro/Retail/Staff Canteen",
      "AddressLine2": "2 Drury Way",
      "PostCode": "NW10 0TH",
      "RatingValue": "5",
      "Geocode_Longitude": -0.259847,
      "Geocode_Latitude": 51.553955,
      "AddressLine3": "London"
    },
    {
      "_id": "6399f72271c0238ae6f3e467",
      "BusinessName": "Venezia Cafe",
      "AddressLine2": "London",
      "PostCode": "NW10 2QG",
      "RatingValue": "4",
      "Geocode_Longitude": -0.225238,
      "Geocode_Latitude": 51.547753,
      "AddressLine3": ""
    },
    {
      "_id": "6399f72271c0238ae6f3e47c",
      "BusinessName": "Village Cafe (Ground/First Floor)",
      "AddressLine2": "Grove Park",
      "PostCode": "NW9 0JY",
      "RatingValue": "4",
      "Geocode_Longitude": -0.263694,
      "Geocode_Latitude": 51.590808,
      "AddressLine3": "London"
    },
    {
      "_id": "6399f72171c0238ae6f3d7c5",
      "BusinessName": "Kaah Internet Cafe",
      "AddressLine2": "London",
      "PostCode": "NW10 0BT",
      "RatingValue": "3",
      "Geocode_Longitude": -0.254644,
      "Geocode_Latitude": 51.561368,
      "AddressLine3": ""
    },
    {
      "_id": "6399f72171c0238ae6f3d840",
      "BusinessName": "Kiln Cafe, Bar & Kitchen",
      "AddressLine2": "Kilburn High Road",
      "PostCode": "NW6 7JR",
      "RatingValue": "5",
      "Geocode_Longitude": -0.20039400458336,
      "Geocode_Latitude": 51.5437240600586,
      "AddressLine3": "London"
    },
    {
      "_id": "6399f72271c0238ae6f3e51b",
      "BusinessName": "Willesden Centre for Health & Care -Kitchen & Cafe -Servest",
      "AddressLine2": "Robson Avenue",
      "PostCode": "NW10 3RY",
      "RatingValue": "5",
      "Geocode_Longitude": -0.235436,
      "Geocode_Latitude": 51.542871,
      "AddressLine3": "London"
    },
    {
      "_id": "6399f72171c0238ae6f3d84c",
      "BusinessName": "Kings Cafe",
      "AddressLine2": "London",
      "PostCode": "NW10 2SG",
      "RatingValue": "5",
      "Geocode_Longitude": -0.232921,
      "Geocode_Latitude": 51.547132,
      "AddressLine3": ""
    },
    {
      "_id": "6399f72171c0238ae6f3d936",
      "BusinessName": "Little Shine Cafe",
      "AddressLine2": "124-126 High Street",
      "PostCode": "NW10 4SP",
      "RatingValue": "4",
      "Geocode_Longitude": -0.244174,
      "Geocode_Latitude": 51.535394,
      "AddressLine3": "London"
    },
    {
      "_id": "6399f72171c0238ae6f3da89",
      "BusinessName": "Metro Cafe",
      "AddressLine2": "High Road",
      "PostCode": "NW10 2JY",
      "RatingValue": "5",
      "Geocode_Longitude": -0.238026,
      "Geocode_Latitude": 51.548252,
      "AddressLine3": "London"
    },
    {
      "_id": "6399f72171c0238ae6f3daaa",
      "BusinessName": "Milk Beach Cafe & Restaurant",
      "AddressLine2": "London",
      "PostCode": "NW6 6RA",
      "RatingValue": "5",
      "Geocode_Longitude": -0.203577,
      "Geocode_Latitude": 51.537064,
      "AddressLine3": ""
    },
    {
      "_id": "6399f72171c0238ae6f3dab6",
      "BusinessName": "Mineiro Cafe",
      "AddressLine2": "London",
      "PostCode": "NW10 3ND",
      "RatingValue": "4",
      "Geocode_Longitude": -0.21854,
      "Geocode_Latitude": 51.533875,
      "AddressLine3": ""
    },
    {
      "_id": "6399f72171c0238ae6f3dab9",
      "BusinessName": "Mineiro Cafe",
      "AddressLine2": "London",
      "PostCode": "NW10 4UX",
      "RatingValue": "5",
      "Geocode_Longitude": -0.24655,
      "Geocode_Latitude": 51.533254,
      "AddressLine3": ""
    },
    {
      "_id": "6399f72171c0238ae6f3daf8",
      "BusinessName": "Morrisons:-Cafe/S'market/butcher/baker/fish",
      "AddressLine2": "Honeypot Lane",
      "PostCode": "NW9 6RN",
      "RatingValue": "5",
      "Geocode_Longitude": -0.284613,
      "Geocode_Latitude": 51.591943,
      "AddressLine3": "London"
    },
    {
      "_id": "6399f72171c0238ae6f3db7f",
      "BusinessName": "Nera Cafe",
      "AddressLine2": "London",
      "PostCode": "NW10 4JB",
      "RatingValue": "3",
      "Geocode_Longitude": -0.242385,
      "Geocode_Latitude": 51.536933,
      "AddressLine3": ""
    },
    {
      "_id": "6399f72271c0238ae6f3e55d",
      "BusinessName": "Witch Cafe",
      "AddressLine2": "London",
      "PostCode": "NW10 2TE",
      "RatingValue": "5",
      "Geocode_Longitude": -0.22584,
      "Geocode_Latitude": 51.547465,
      "AddressLine3": ""
    },
    {
      "_id": "6399f72271c0238ae6f3e581",
      "BusinessName": "Workmans Cafe",
      "AddressLine2": "London",
      "PostCode": "NW10 2EA",
      "RatingValue": "5",
      "Geocode_Longitude": -0.242013,
      "Geocode_Latitude": 51.549229,
      "AddressLine3": ""
    },
    {
      "_id": "6399f72271c0238ae6f3e584",
      "BusinessName": "Workmans's Cafe",
      "AddressLine2": "Oxgate Lane",
      "PostCode": "NW2 7HJ",
      "RatingValue": "5",
      "Geocode_Longitude": -0.232673,
      "Geocode_Latitude": 51.568035,
      "AddressLine3": "London"
    },
    {
      "_id": "6399f72271c0238ae6f3e6ad",
      "BusinessName": "Arin Cafe",
      "AddressLine2": "Penge",
      "PostCode": "SE19 2AN",
      "RatingValue": "5",
      "Geocode_Longitude": -0.072978,
      "Geocode_Latitude": 51.416154,
      "AddressLine3": "London"
    },
    {
      "_id": "6399f72171c0238ae6f3dc00",
      "BusinessName": "Normans Cafe",
      "AddressLine2": "London",
      "PostCode": "NW9 8UG",
      "RatingValue": "5",
      "Geocode_Longitude": -0.263457,
      "Geocode_Latitude": 51.583017,
      "AddressLine3": ""
    },
    {
      "_id": "6399f72171c0238ae6f3dc21",
      "BusinessName": "Nuffield Health & Fitness (Cafe)",
      "AddressLine2": "Sidmouth Road",
      "PostCode": "NW2 5JY",
      "RatingValue": "5",
      "Geocode_Longitude": -0.222349,
      "Geocode_Latitude": 51.543807,
      "AddressLine3": "London"
    },
    {
      "_id": "6399f72171c0238ae6f3dc9c",
      "BusinessName": "Papagayo Cafe",
      "AddressLine2": "London",
      "PostCode": "NW10 2SL",
      "RatingValue": "4",
      "Geocode_Longitude": -0.230059,
      "Geocode_Latitude": 51.546918,
      "AddressLine3": ""
    },
    {
      "_id": "6399f72171c0238ae6f3dcea",
      "BusinessName": "Pedros Cafe",
      "AddressLine2": "London",
      "PostCode": "NW2 3HT",
      "RatingValue": "5",
      "Geocode_Longitude": -0.215855,
      "Geocode_Latitude": 51.556801,
      "AddressLine3": ""
    },
    {
      "_id": "6399f72271c0238ae6f3e833",
      "BusinessName": "Blowing Dandelion, Artisan Chocolate Cafe",
      "AddressLine2": "Anerley",
      "PostCode": "SE19 2HJ",
      "RatingValue": "4",
      "Geocode_Longitude": -0.07957199960947,
      "Geocode_Latitude": 51.4169998168945,
      "AddressLine3": "London"
    },
    {
      "_id": "6399f72271c0238ae6f3e983",
      "BusinessName": "Cafe Chic",
      "AddressLine2": "Penge",
      "PostCode": "SE19 2AS",
      "RatingValue": "4",
      "Geocode_Longitude": -0.072575,
      "Geocode_Latitude": 51.41648,
      "AddressLine3": "London"
    },
    {
      "_id": "6399f72171c0238ae6f3de2b",
      "BusinessName": "Rainbow Cafe",
      "AddressLine2": "London",
      "PostCode": "NW10 1DG",
      "RatingValue": "5",
      "Geocode_Longitude": -0.241762,
      "Geocode_Latitude": 51.550852,
      "AddressLine3": ""
    },
    {
      "_id": "6399f72271c0238ae6f3ec9e",
      "BusinessName": "Davimar Cafe",
      "AddressLine2": "Penge",
      "PostCode": "SE19 2AS",
      "RatingValue": "4",
      "Geocode_Longitude": -0.072576,
      "Geocode_Latitude": 51.41648,
      "AddressLine3": "London"
    },
    {
      "_id": "6399f72271c0238ae6f3edac",
      "BusinessName": "Family Cafe",
      "AddressLine2": "Sydenham",
      "PostCode": "SE26 5NF",
      "RatingValue": "5",
      "Geocode_Longitude": -0.051569,
      "Geocode_Latitude": 51.422113,
      "AddressLine3": "London"
    },
    {
      "_id": "6399f72271c0238ae6f3ee6c",
      "BusinessName": "Garden Cafe",
      "AddressLine2": "Penge",
      "PostCode": "SE20 7EZ",
      "RatingValue": "5",
      "Geocode_Longitude": -0.053426,
      "Geocode_Latitude": 51.415309,
      "AddressLine3": "London"
    },
    {
      "_id": "6399f72271c0238ae6f3ee7e",
      "BusinessName": "Get Stuffed Cafe",
      "AddressLine2": "Penge",
      "PostCode": "SE20 7UN",
      "RatingValue": "4",
      "Geocode_Longitude": -0.068522,
      "Geocode_Latitude": 51.404156,
      "AddressLine3": "London"
    },
    {
      "_id": "6399f72271c0238ae6f3ef20",
      "BusinessName": "Hardedge Cafe",
      "AddressLine2": "Penge",
      "PostCode": "SE20 7DT",
      "RatingValue": "4",
      "Geocode_Longitude": -0.053019,
      "Geocode_Latitude": 51.415743,
      "AddressLine3": "London"
    },
    {
      "_id": "6399f72271c0238ae6f3ef50",
      "BusinessName": "Hayaku Sushi Cafe",
      "AddressLine2": "Penge",
      "PostCode": "SE20 8HU",
      "RatingValue": "4",
      "Geocode_Longitude": -0.055212,
      "Geocode_Latitude": 51.415231,
      "AddressLine3": "London"
    },
    {
      "_id": "6399f72371c0238ae6f3f2e0",
      "BusinessName": "Maple Cafe",
      "AddressLine2": "Penge",
      "PostCode": "SE20 8JB",
      "RatingValue": "5",
      "Geocode_Longitude": -0.055172,
      "Geocode_Latitude": 51.414493,
      "AddressLine3": "London"
    },
    {
      "_id": "6399f72371c0238ae6f3f35b",
      "BusinessName": "Mega Cafe",
      "AddressLine2": "Penge",
      "PostCode": "SE20 7UX",
      "RatingValue": "5",
      "Geocode_Longitude": -0.057743,
      "Geocode_Latitude": 51.406091,
      "AddressLine3": "London"
    },
    {
      "_id": "6399f72371c0238ae6f3f36a",
      "BusinessName": "Mem's Cafe",
      "AddressLine2": "Mottingham",
      "PostCode": "SE9 4QZ",
      "RatingValue": "5",
      "Geocode_Longitude": 0.044273,
      "Geocode_Latitude": 51.437036,
      "AddressLine3": "London"
    },
    {
      "_id": "6399f72371c0238ae6f3f448",
      "BusinessName": "Naka Cafe",
      "AddressLine2": "Penge",
      "PostCode": "SE20 7HW",
      "RatingValue": "3",
      "Geocode_Longitude": -0.056771,
      "Geocode_Latitude": 51.417127,
      "AddressLine3": "London"
    },
    {
      "_id": "6399f72371c0238ae6f3f607",
      "BusinessName": "Penge Cafe Bistro",
      "AddressLine2": "Penge",
      "PostCode": "SE20 7DT",
      "RatingValue": "3",
      "Geocode_Longitude": -0.053019,
      "Geocode_Latitude": 51.415743,
      "AddressLine3": "London"
    },
    {
      "_id": "6399f72371c0238ae6f3f7c0",
      "BusinessName": "Rosie Lee Cafe",
      "AddressLine2": "Penge",
      "PostCode": "SE20 8EF",
      "RatingValue": "5",
      "Geocode_Longitude": -0.064778,
      "Geocode_Latitude": 51.410749,
      "AddressLine3": "London"
    },
    {
      "_id": "6399f72671c0238ae6f42a0f",
      "BusinessName": "Brown & Green Cafe",
      "AddressLine2": "Upper Norwood",
      "PostCode": "SE19 2PR",
      "RatingValue": "5",
      "Geocode_Longitude": -0.08117900043726,
      "Geocode_Latitude": 51.416748046875,
      "AddressLine3": "London"
    },
    {
      "_id": "6399f72671c0238ae6f42a54",
      "BusinessName": "Cafe Ariana",
      "AddressLine2": "Norbury",
      "PostCode": "SW16 4BT",
      "RatingValue": "4",
      "Geocode_Longitude": -0.12342300266028,
      "Geocode_Latitude": 51.412052154541,
      "AddressLine3": "London"
    },
    {
      "_id": "6399f72671c0238ae6f42a57",
      "BusinessName": "Cafe Aurora",
      "AddressLine2": "Norbury",
      "PostCode": "SW16 4DE",
      "RatingValue": "5",
      "Geocode_Longitude": -0.12191899865866,
      "Geocode_Latitude": 51.4091148376465,
      "AddressLine3": "London"
    },
    {
      "_id": "6399f72671c0238ae6f42a6c",
      "BusinessName": "Cafe De Niro",
      "AddressLine2": "South Norwood",
      "PostCode": "SE25 6DP",
      "RatingValue": "5",
      "Geocode_Longitude": -0.08713100105524,
      "Geocode_Latitude": 51.4095687866211,
      "AddressLine3": "London"
    },
    {
      "_id": "6399f72671c0238ae6f42a78",
      "BusinessName": "Cafe Havana",
      "AddressLine2": "Norbury",
      "PostCode": "SW16 4BE",
      "RatingValue": "4",
      "Geocode_Longitude": -0.12186200171709,
      "Geocode_Latitude": 51.4076957702637,
      "AddressLine3": "London"
    },
    {
      "_id": "6399f72671c0238ae6f42a7b",
      "BusinessName": "Cafe Havana",
      "AddressLine2": "Norbury",
      "PostCode": "SW16 4BE",
      "RatingValue": "4",
      "Geocode_Longitude": -0.12186200171709,
      "Geocode_Latitude": 51.4076957702637,
      "AddressLine3": "London"
    },
    {
      "_id": "6399f72671c0238ae6f42a81",
      "BusinessName": "Cafe Latino Mi Cocina Es Tuya",
      "AddressLine2": "Upper Norwood",
      "PostCode": "SE19 3RW",
      "RatingValue": "4",
      "Geocode_Longitude": -0.08188000321388,
      "Geocode_Latitude": 51.4178657531738,
      "AddressLine3": "London"
    },
    {
      "_id": "6399f72771c0238ae6f43634",
      "BusinessName": "Margiana Cafe",
      "AddressLine2": "South Norwood",
      "PostCode": "SE25 6EP",
      "RatingValue": "5",
      "Geocode_Longitude": -0.07648999989033,
      "Geocode_Latitude": 51.3986129760742,
      "AddressLine3": "London"
    },
    {
      "_id": "6399f72771c0238ae6f4370f",
      "BusinessName": "Michael's Cafe",
      "AddressLine2": "South Norwood",
      "PostCode": "SE25 5QF",
      "RatingValue": "4",
      "Geocode_Longitude": -0.09039299935102,
      "Geocode_Latitude": 51.3888931274414,
      "AddressLine3": "London"
    },
    {
      "_id": "6399f72771c0238ae6f439a6",
      "BusinessName": "Patricia Cafe Ltd",
      "AddressLine2": "Norbury",
      "PostCode": "SW16 4AA",
      "RatingValue": "4",
      "Geocode_Longitude": -0.12460699677467,
      "Geocode_Latitude": 51.4129905700684,
      "AddressLine3": "London"
    },
    {
      "_id": "6399f72771c0238ae6f43ab1",
      "BusinessName": "Portland Cafe",
      "AddressLine2": "South Norwood",
      "PostCode": "SE25 4PQ",
      "RatingValue": "2",
      "Geocode_Longitude": -0.07097700238228,
      "Geocode_Latitude": 51.3970565795898,
      "AddressLine3": "London"
    },
    {
      "_id": "6399f72771c0238ae6f43e8c",
      "BusinessName": "Star Cafe",
      "AddressLine2": "South Norwood",
      "PostCode": "SE25 4QB",
      "RatingValue": "3",
      "Geocode_Longitude": -0.0667729973793,
      "Geocode_Latitude": 51.3924293518066,
      "AddressLine3": "London"
    },
    {
      "_id": "6399f72771c0238ae6f44120",
      "BusinessName": "The Norbury Cafe",
      "AddressLine2": "Norbury",
      "PostCode": "SW16 4AU",
      "RatingValue": "5",
      "Geocode_Longitude": -0.12157099694014,
      "Geocode_Latitude": 51.4070854187012,
      "AddressLine3": "London"
    },
    {
      "_id": "6399f72771c0238ae6f44150",
      "BusinessName": "The Railway Cafe Bar",
      "AddressLine2": "Norbury",
      "PostCode": "SW16 4BT",
      "RatingValue": "4",
      "Geocode_Longitude": -0.12342300266028,
      "Geocode_Latitude": 51.412052154541,
      "AddressLine3": "London"
    },
    {
      "_id": "6399f72871c0238ae6f44455",
      "BusinessName": "Albi Ison, c/o Alchemy Cafe",
      "AddressLine2": "London",
      "PostCode": "EC4V 6DU",
      "RatingValue": "5",
      "Geocode_Longitude": -0.102568,
      "Geocode_Latitude": 51.513514,
      "AddressLine3": ""
    },
    {
      "_id": "6399f72871c0238ae6f44458",
      "BusinessName": "Alchemy Cafes Limited",
      "AddressLine2": "London",
      "PostCode": "EC4V 6DU",
      "RatingValue": "5",
      "Geocode_Longitude": -0.102568,
      "Geocode_Latitude": 51.513514,
      "AddressLine3": ""
    },
    {
      "_id": "6399f72871c0238ae6f4448e",
      "BusinessName": "Aramark, Ground floor Staff Cafe",
      "AddressLine2": "Tower Place",
      "PostCode": "EC3R 5BU",
      "RatingValue": "5",
      "Geocode_Longitude": -0.080216,
      "Geocode_Latitude": 51.509023,
      "AddressLine3": "London"
    },
    {
      "_id": "6399f72871c0238ae6f44569",
      "BusinessName": "BaxterStorey Cafe, GSM & D",
      "AddressLine2": "1 Milton Street",
      "PostCode": "EC2Y 9BH",
      "RatingValue": "5",
      "Geocode_Longitude": -0.091122,
      "Geocode_Latitude": 51.520109,
      "AddressLine3": "London"
    },
    {
      "_id": "6399f72871c0238ae6f445d8",
      "BusinessName": "BaxterStorey, The Foyer Cafe",
      "AddressLine2": "Silk Street",
      "PostCode": "EC2Y 8DT",
      "RatingValue": "5",
      "Geocode_Longitude": -0.092445,
      "Geocode_Latitude": 51.51951,
      "AddressLine3": "London"
    },
    {
      "_id": "6399f72871c0238ae6f4466b",
      "BusinessName": "Beppes Cafe",
      "AddressLine2": "London",
      "PostCode": "EC1A 9HY",
      "RatingValue": "4",
      "Geocode_Longitude": -0.101784,
      "Geocode_Latitude": 51.5178,
      "AddressLine3": ""
    },
    {
      "_id": "6399f72871c0238ae6f446dd",
      "BusinessName": "BM Cafe, Brooks McDonald",
      "AddressLine2": "London",
      "PostCode": "EC3V 9AH",
      "RatingValue": "5",
      "Geocode_Longitude": -0.087295,
      "Geocode_Latitude": 51.512367,
      "AddressLine3": ""
    },
    {
      "_id": "6399f72871c0238ae6f4478e",
      "BusinessName": "Cafe 101, Salvation Army",
      "AddressLine2": "101 Queen Victoria Street",
      "PostCode": "EC4V 4EH",
      "RatingValue": "5",
      "Geocode_Longitude": -0.097788,
      "Geocode_Latitude": 51.511647,
      "AddressLine3": "London"
    },
    {
      "_id": "6399f72871c0238ae6f44791",
      "BusinessName": "Cafe 25",
      "AddressLine2": "25 Copthall Avenue",
      "PostCode": "EC2R 7BP",
      "RatingValue": "5",
      "Geocode_Longitude": -0.088126,
      "Geocode_Latitude": 51.516958,
      "AddressLine3": "London"
    },
    {
      "_id": "6399f72871c0238ae6f44794",
      "BusinessName": "Cafe Below,Crypt & Coffee Bar",
      "AddressLine2": "Cheapside",
      "PostCode": "EC2V 6AU",
      "RatingValue": "5",
      "Geocode_Longitude": -0.093552,
      "Geocode_Latitude": 51.51371,
      "AddressLine3": "London"
    },
    {
      "_id": "6399f72871c0238ae6f44797",
      "BusinessName": "Cafe Brera",
      "AddressLine2": "London",
      "PostCode": "EC3M 4AJ",
      "RatingValue": "5",
      "Geocode_Longitude": -0.078326,
      "Geocode_Latitude": 51.511456,
      "AddressLine3": ""
    },
    {
      "_id": "6399f72871c0238ae6f4479d",
      "BusinessName": "Cafe GEC, Northern & Shell Building",
      "AddressLine2": "London",
      "PostCode": "EC3R 6EN",
      "RatingValue": "4",
      "Geocode_Longitude": -0.084999,
      "Geocode_Latitude": 51.509056,
      "AddressLine3": ""
    },
    {
      "_id": "6399f72871c0238ae6f447a0",
      "BusinessName": "Cafe Rouge",
      "AddressLine2": "London",
      "PostCode": "EC4M 8AY",
      "RatingValue": "5",
      "Geocode_Longitude": -0.10028,
      "Geocode_Latitude": 51.513414,
      "AddressLine3": ""
    },
    {
      "_id": "6399f72871c0238ae6f447a3",
      "BusinessName": "Cafe Verona",
      "AddressLine2": "London",
      "PostCode": "EC2M 6SE",
      "RatingValue": "3",
      "Geocode_Longitude": -0.088209,
      "Geocode_Latitude": 51.517732,
      "AddressLine3": ""
    },
    {
      "_id": "6399f72871c0238ae6f447a6",
      "BusinessName": "Cafe Vita",
      "AddressLine2": "London",
      "PostCode": "EC2V 5BQ",
      "RatingValue": "5",
      "Geocode_Longitude": -0.090859,
      "Geocode_Latitude": 51.515716,
      "AddressLine3": ""
    },
    {
      "_id": "6399f72871c0238ae6f447a9",
      "BusinessName": "Cafe, Nuffield City Fitness Centre",
      "AddressLine2": "London",
      "PostCode": "EC4R 3XJ",
      "RatingValue": "2",
      "Geocode_Longitude": -0.09051,
      "Geocode_Latitude": 51.51098,
      "AddressLine3": ""
    },
    {
      "_id": "6399f72871c0238ae6f448d8",
      "BusinessName": "Church of Scientology Cafe",
      "AddressLine2": "London",
      "PostCode": "EC4V 4BY",
      "RatingValue": "5",
      "Geocode_Longitude": -0.101553,
      "Geocode_Latitude": 51.512266,
      "AddressLine3": ""
    },
    {
      "_id": "6399f72871c0238ae6f448e1",
      "BusinessName": "City & Guilds Staff Cafe",
      "AddressLine2": "5-6 Giltspur Street",
      "PostCode": "EC1A 9DE",
      "RatingValue": "5",
      "Geocode_Longitude": -0.101962,
      "Geocode_Latitude": 51.516985,
      "AddressLine3": "London"
    },
    {
      "_id": "6399f72871c0238ae6f44a1c",
      "BusinessName": "Dashwood House Cafe, Land Securities",
      "AddressLine2": "69 Old Broad Street",
      "PostCode": "EC2M 1QS",
      "RatingValue": "5",
      "Geocode_Longitude": -0.0826864,
      "Geocode_Latitude": 51.5168699,
      "AddressLine3": "London"
    },
    {
      "_id": "6399f72871c0238ae6f44b5a",
      "BusinessName": "Food for All (Krishna Cafe)",
      "AddressLine2": "26-30 Holborn Viaduct",
      "PostCode": "EC1A 2AT",
      "RatingValue": "5",
      "Geocode_Longitude": -0.1057738,
      "Geocode_Latitude": 51.5172901,
      "AddressLine3": "London"
    },
    {
      "_id": "6399f72871c0238ae6f44b8a",
      "BusinessName": "Gallery Cafe",
      "AddressLine2": "London",
      "PostCode": "EC2Y 5AS",
      "RatingValue": "5",
      "Geocode_Longitude": -0.093975,
      "Geocode_Latitude": 51.517736,
      "AddressLine3": ""
    },
    {
      "_id": "6399f72871c0238ae6f44bfc",
      "BusinessName": "Grabthai Bangkok Cafe",
      "AddressLine2": "London",
      "PostCode": "EC4M 9AG",
      "RatingValue": "4",
      "Geocode_Longitude": -0.095991,
      "Geocode_Latitude": 51.513632,
      "AddressLine3": ""
    },
    {
      "_id": "6399f72871c0238ae6f44c74",
      "BusinessName": "Hiscox Art Cafe",
      "AddressLine2": "London",
      "PostCode": "EC3A 6AP",
      "RatingValue": "5",
      "Geocode_Longitude": -0.082433,
      "Geocode_Latitude": 51.514913,
      "AddressLine3": ""
    },
    {
      "_id": "6399f72871c0238ae6f44cd4",
      "BusinessName": "Houston & Hawkes, Cafe 21, Jones Day",
      "AddressLine2": "London",
      "PostCode": "EC4Y 0DJ",
      "RatingValue": "4",
      "Geocode_Longitude": -0.107447,
      "Geocode_Latitude": 51.512271,
      "AddressLine3": ""
    },
    {
      "_id": "6399f72871c0238ae6f44cf2",
      "BusinessName": "Illy's Cafe",
      "AddressLine2": "London",
      "PostCode": "EC3A 5AF",
      "RatingValue": "4",
      "Geocode_Longitude": -0.0784649,
      "Geocode_Latitude": 51.5142601,
      "AddressLine3": ""
    },
    {
      "_id": "6399f72871c0238ae6f44d25",
      "BusinessName": "ISS, Cafe Fayre, BEIS",
      "AddressLine2": "2-6 Salisbury Square",
      "PostCode": "EC4Y 8AE",
      "RatingValue": "4",
      "Geocode_Longitude": -0.1067591,
      "Geocode_Latitude": 51.5136909,
      "AddressLine3": "London"
    },
    {
      "_id": "6399f72871c0238ae6f44d8e",
      "BusinessName": "Jones Dairy Cafe",
      "AddressLine2": "24 Tudor Street",
      "PostCode": "EC4Y 0AY",
      "RatingValue": "2",
      "Geocode_Longitude": -0.106683,
      "Geocode_Latitude": 51.512627,
      "AddressLine3": "London"
    },
    {
      "_id": "6399f72871c0238ae6f44d9a",
      "BusinessName": "K & L Gates, 4 cafe",
      "AddressLine2": "London",
      "PostCode": "EC4M 9AF",
      "RatingValue": "5",
      "Geocode_Longitude": -0.09523,
      "Geocode_Latitude": 51.513548,
      "AddressLine3": ""
    },
    {
      "_id": "6399f72871c0238ae6f44daf",
      "BusinessName": "Kahaila Cafe",
      "AddressLine2": "1 Aldgate Square",
      "PostCode": "EC3N 1AF",
      "RatingValue": "5",
      "Geocode_Longitude": -0.07672500005598,
      "Geocode_Latitude": 51.5135800000307,
      "AddressLine3": "London"
    },
    {
      "_id": "6399f72871c0238ae6f44eae",
      "BusinessName": "Lounge Cafe, hub by Premier Inn",
      "AddressLine2": "London",
      "PostCode": "EC4N 8AL",
      "RatingValue": "5",
      "Geocode_Longitude": -0.0893227,
      "Geocode_Latitude": 51.5116779,
      "AddressLine3": ""
    },
    {
      "_id": "6399f72871c0238ae6f44eb1",
      "BusinessName": "LoveFit Cafe",
      "AddressLine2": "London",
      "PostCode": "E1 7DB",
      "RatingValue": "5",
      "Geocode_Longitude": -0.077382,
      "Geocode_Latitude": 51.51609,
      "AddressLine3": ""
    },
    {
      "_id": "6399f72871c0238ae6f44edb",
      "BusinessName": "Manon Cafe",
      "AddressLine2": "London",
      "PostCode": "EC4A 2AF",
      "RatingValue": "5",
      "Geocode_Longitude": -0.104926,
      "Geocode_Latitude": 51.514344,
      "AddressLine3": ""
    },
    {
      "_id": "6399f72871c0238ae6f44ede",
      "BusinessName": "Manon Cafe",
      "AddressLine2": "London",
      "PostCode": "EC3M 1JA",
      "RatingValue": "5",
      "Geocode_Longitude": -0.082997,
      "Geocode_Latitude": 51.510723,
      "AddressLine3": ""
    },
    {
      "_id": "6399f72871c0238ae6f44ee1",
      "BusinessName": "Manon Cafe & Leonidas Chocolates",
      "AddressLine2": "London",
      "PostCode": "EC2R 7BS",
      "RatingValue": "5",
      "Geocode_Longitude": -0.088011,
      "Geocode_Latitude": 51.516614,
      "AddressLine3": ""
    },
    {
      "_id": "6399f72871c0238ae6f4514b",
      "BusinessName": "Peoples Choice Cafe",
      "AddressLine2": "London",
      "PostCode": "EC1M 7AA",
      "RatingValue": "5",
      "Geocode_Longitude": -0.09738,
      "Geocode_Latitude": 51.522495,
      "AddressLine3": ""
    },
    {
      "_id": "6399f72871c0238ae6f4514e",
      "BusinessName": "Peters Cafe",
      "AddressLine2": "London",
      "PostCode": "EC3N 1BD",
      "RatingValue": "5",
      "Geocode_Longitude": -0.075489,
      "Geocode_Latitude": 51.513819,
      "AddressLine3": ""
    },
    {
      "_id": "6399f72871c0238ae6f451c6",
      "BusinessName": "Poppins Cafe",
      "AddressLine2": "London",
      "PostCode": "EC4A 4AX",
      "RatingValue": "5",
      "Geocode_Longitude": -0.105116,
      "Geocode_Latitude": 51.514617,
      "AddressLine3": ""
    },
    {
      "_id": "6399f72871c0238ae6f4535b",
      "BusinessName": "Riverside Cafe & Bar",
      "AddressLine2": "London",
      "PostCode": "SE1 7SG",
      "RatingValue": "4",
      "Geocode_Longitude": -0.121734,
      "Geocode_Latitude": 51.494974,
      "AddressLine3": ""
    },
    {
      "_id": "6399f72871c0238ae6f453b5",
      "BusinessName": "Sam's Cafe, Markel International",
      "AddressLine2": "London",
      "PostCode": "EC3M 3BY",
      "RatingValue": "5",
      "Geocode_Longitude": -0.084345,
      "Geocode_Latitude": 51.511572,
      "AddressLine3": ""
    },
    {
      "_id": "6399f72871c0238ae6f45451",
      "BusinessName": "Smithfield Cafe",
      "AddressLine2": "59 Long Lane",
      "PostCode": "EC1A 9EJ",
      "RatingValue": "3",
      "Geocode_Longitude": -0.099909,
      "Geocode_Latitude": 51.519217,
      "AddressLine3": "London"
    },
    {
      "_id": "6399f72871c0238ae6f4545a",
      "BusinessName": "Smooth Cafe DGHE",
      "AddressLine2": "London",
      "PostCode": "EC3N 2ET",
      "RatingValue": "5",
      "Geocode_Longitude": -0.07656200230122,
      "Geocode_Latitude": 51.5133056640625,
      "AddressLine3": ""
    },
    {
      "_id": "6399f72971c0238ae6f455e3",
      "BusinessName": "The Cafe, Level 1",
      "AddressLine2": "155 Moorgate",
      "PostCode": "EC2M 6XB",
      "RatingValue": "4",
      "Geocode_Longitude": -0.088233,
      "Geocode_Latitude": 51.518893,
      "AddressLine3": "London"
    },
    {
      "_id": "6399f72971c0238ae6f4579c",
      "BusinessName": "Travelodge - Bar & Cafe",
      "AddressLine2": "London",
      "PostCode": "E1 7DB",
      "RatingValue": "5",
      "Geocode_Longitude": -0.077382,
      "Geocode_Latitude": 51.51609,
      "AddressLine3": ""
    },
    {
      "_id": "6399f72971c0238ae6f4594c",
      "BusinessName": "A 2 Zee's Cafe",
      "AddressLine2": "West Ealing",
      "AddressLine3": "London",
      "PostCode": "W13 0LJ",
      "RatingValue": "2",
      "Geocode_Longitude": -0.320467,
      "Geocode_Latitude": 51.51377
    },
    {
      "_id": "6399f72971c0238ae6f45997",
      "BusinessName": "Acton Cafe",
      "AddressLine2": "Acton",
      "AddressLine3": "London",
      "PostCode": "W3 6PL",
      "RatingValue": "5",
      "Geocode_Longitude": -0.26710200309753,
      "Geocode_Latitude": 51.5163841247559
    },
    {
      "_id": "6399f72971c0238ae6f45a12",
      "BusinessName": "Al Panini Cafe Bar",
      "AddressLine2": "West Ealing",
      "AddressLine3": "London",
      "PostCode": "W13 0SU",
      "RatingValue": "5",
      "Geocode_Longitude": -0.32223799824715,
      "Geocode_Latitude": 51.510684967041
    },
    {
      "_id": "6399f72971c0238ae6f45bf8",
      "BusinessName": "Big Bites Cafe",
      "AddressLine2": "Hanwell",
      "AddressLine3": "London",
      "PostCode": "W7 3SL",
      "RatingValue": "5",
      "Geocode_Longitude": -0.3384830057621,
      "Geocode_Latitude": 51.5086059570313
    },
    {
      "_id": "6399f72971c0238ae6f45c58",
      "BusinessName": "Bonne Cafe",
      "AddressLine2": "Ealing",
      "AddressLine3": "London",
      "PostCode": "W5 3SS",
      "RatingValue": "3",
      "Geocode_Longitude": -0.302177,
      "Geocode_Latitude": 51.513416
    },
    {
      "_id": "6399f72971c0238ae6f45cb8",
      "BusinessName": "Bronek's Park Cafe",
      "AddressLine2": "West Ealing",
      "AddressLine3": "London",
      "PostCode": "W13 9QT",
      "RatingValue": "3",
      "Geocode_Longitude": -0.31607300043106,
      "Geocode_Latitude": 51.5024032592773
    },
    {
      "_id": "6399f72971c0238ae6f45d18",
      "BusinessName": "Cafe 786",
      "AddressLine2": "Ealing",
      "AddressLine3": "London",
      "PostCode": "W5 1QX",
      "RatingValue": "3",
      "Geocode_Longitude": -0.31452,
      "Geocode_Latitude": 51.526121
    },
    {
      "_id": "6399f72971c0238ae6f45d1b",
      "BusinessName": "Cafe Bella",
      "AddressLine2": "West Ealing",
      "AddressLine3": "London",
      "PostCode": "W13 0TL",
      "RatingValue": "1",
      "Geocode_Longitude": -0.3280904,
      "Geocode_Latitude": 51.5096979
    },
    {
      "_id": "6399f72971c0238ae6f45d27",
      "BusinessName": "Cafe Florentine",
      "AddressLine2": "West Ealing",
      "AddressLine3": "London",
      "PostCode": "W13 9SJ",
      "RatingValue": "3",
      "Geocode_Longitude": -0.31545400619507,
      "Geocode_Latitude": 51.5000305175781
    },
    {
      "_id": "6399f72971c0238ae6f45d30",
      "BusinessName": "Cafe Nell",
      "AddressLine2": "West Ealing",
      "AddressLine3": "London",
      "PostCode": "W13 9RL",
      "RatingValue": "5",
      "Geocode_Longitude": -0.319261,
      "Geocode_Latitude": 51.504643
    },
    {
      "_id": "6399f72971c0238ae6f45d36",
      "BusinessName": "Cafe Ola",
      "AddressLine2": "Park Royal",
      "AddressLine3": "London",
      "PostCode": "NW10 6QN",
      "RatingValue": "4",
      "Geocode_Longitude": -0.259938,
      "Geocode_Latitude": 51.526969
    },
    {
      "_id": "6399f72971c0238ae6f45d48",
      "BusinessName": "Cafe Zee",
      "AddressLine2": "Ealing",
      "AddressLine3": "London",
      "PostCode": "W5 5AW",
      "RatingValue": "4",
      "Geocode_Longitude": -0.305484,
      "Geocode_Latitude": 51.512853
    },
    {
      "_id": "6399f72971c0238ae6f45eaa",
      "BusinessName": "Clocktowercafe",
      "AddressLine2": "Hanwell",
      "AddressLine3": "London",
      "PostCode": "W7 3SP",
      "RatingValue": "4",
      "Geocode_Longitude": -0.33813300728798,
      "Geocode_Latitude": 51.5091209411621
    },
    {
      "_id": "6399f72971c0238ae6f45fb2",
      "BusinessName": "D P World Cafe",
      "AddressLine2": "West Ealing",
      "AddressLine3": "London",
      "PostCode": "W13 0SG",
      "RatingValue": "2",
      "Geocode_Longitude": -0.324819,
      "Geocode_Latitude": 51.51064
    },
    {
      "_id": "6399f72971c0238ae6f45fc4",
      "BusinessName": "Daleys Cafe",
      "AddressLine2": "Acton",
      "AddressLine3": "London",
      "PostCode": "W3 8PU",
      "RatingValue": "1",
      "Geocode_Longitude": -0.270925,
      "Geocode_Latitude": 51.506764
    },
    {
      "_id": "6399f72971c0238ae6f46282",
      "BusinessName": "Franks Cafe",
      "AddressLine2": "Acton",
      "AddressLine3": "London",
      "PostCode": "W3 6BS",
      "RatingValue": "3",
      "Geocode_Longitude": -0.27057901024818,
      "Geocode_Latitude": 51.5082778930664
    },
    {
      "_id": "6399f72971c0238ae6f4633f",
      "BusinessName": "Grays Corner Cafe",
      "AddressLine2": "Hanwell",
      "AddressLine3": "London",
      "PostCode": "W7 3TB",
      "RatingValue": "1",
      "Geocode_Longitude": -0.34097400307655,
      "Geocode_Latitude": 51.5082511901855
    },
    {
      "_id": "6399f72971c0238ae6f46417",
      "BusinessName": "Hanwell Cafe",
      "AddressLine2": "Hanwell",
      "AddressLine3": "London",
      "PostCode": "W7 3TH",
      "RatingValue": "3",
      "Geocode_Longitude": -0.3398864,
      "Geocode_Latitude": 51.5086874
    },
    {
      "_id": "6399f72971c0238ae6f4641a",
      "BusinessName": "Hanwell Cafe",
      "AddressLine2": "Hanwell",
      "AddressLine3": "London",
      "PostCode": "W7 1AG",
      "RatingValue": "2",
      "Geocode_Longitude": -0.33843898773193,
      "Geocode_Latitude": 51.5224952697754
    },
    {
      "_id": "6399f72a71c0238ae6f46747",
      "BusinessName": "Keats Cafe",
      "AddressLine2": "Hanwell",
      "AddressLine3": "London",
      "PostCode": "W7 3ST",
      "RatingValue": "4",
      "Geocode_Longitude": -0.33567500114441,
      "Geocode_Latitude": 51.5089416503906
    },
    {
      "_id": "6399f72a71c0238ae6f46840",
      "BusinessName": "L'Amandine Cafe",
      "AddressLine2": "Ealing",
      "AddressLine3": "London",
      "PostCode": "W5 4QB",
      "RatingValue": "3",
      "Geocode_Longitude": -0.307052,
      "Geocode_Latitude": 51.501653
    },
    {
      "_id": "6399f72a71c0238ae6f4689d",
      "BusinessName": "Lewis Cafe",
      "AddressLine2": "Acton",
      "AddressLine3": "London",
      "PostCode": "W3 7RH",
      "RatingValue": "1",
      "Geocode_Longitude": -0.255216,
      "Geocode_Latitude": 51.506442
    },
    {
      "_id": "6399f72a71c0238ae6f46906",
      "BusinessName": "Little Wonder Cafe",
      "AddressLine2": "Hanwell",
      "AddressLine3": "London",
      "PostCode": "W7 3SH",
      "RatingValue": "5",
      "Geocode_Longitude": -0.3374,
      "Geocode_Latitude": 51.507447
    },
    {
      "_id": "6399f72b71c0238ae6f477af",
      "BusinessName": "Wa Cafe",
      "AddressLine2": "Ealing",
      "AddressLine3": "London",
      "PostCode": "W5 2NX",
      "RatingValue": "5",
      "Geocode_Longitude": -0.30206799507141,
      "Geocode_Latitude": 51.5155754089355
    },
    {
      "_id": "6399f72b71c0238ae6f47827",
      "BusinessName": "Westside Cafe & Sandwich Bar",
      "AddressLine2": "Ealing",
      "AddressLine3": "London",
      "PostCode": "W5 1QX",
      "RatingValue": "3",
      "Geocode_Longitude": -0.3145210146904,
      "Geocode_Latitude": 51.526123046875
    },
    {
      "_id": "6399f72b71c0238ae6f47923",
      "BusinessName": "A1 Cafe",
      "AddressLine2": "349 Montagu Road",
      "PostCode": "N9 0EU",
      "RatingValue": "3",
      "Geocode_Longitude": -0.048946,
      "Geocode_Latitude": 51.622559,
      "AddressLine3": "LONDON"
    },
    {
      "_id": "6399f72b71c0238ae6f47926",
      "BusinessName": "A10 Cafe",
      "AddressLine2": "Bury Street West",
      "PostCode": "N9 9JJ",
      "RatingValue": "5",
      "Geocode_Longitude": -0.071138,
      "Geocode_Latitude": 51.634113,
      "AddressLine3": "LONDON"
    },
    {
      "_id": "6399f72b71c0238ae6f479dd",
      "BusinessName": "Annita's Cafe",
      "AddressLine2": "Aldermans Hill",
      "PostCode": "N13 4PN",
      "RatingValue": "5",
      "Geocode_Longitude": -0.11041,
      "Geocode_Latitude": 51.618214,
      "AddressLine3": "LONDON"
    },
    {
      "_id": "6399f72b71c0238ae6f47a34",
      "BusinessName": "Ashfield Cafe",
      "AddressLine2": "LONDON",
      "PostCode": "N14 5EH",
      "RatingValue": "4",
      "Geocode_Longitude": -0.12844,
      "Geocode_Latitude": 51.631146,
      "AddressLine3": ""
    },
    {
      "_id": "6399f72b71c0238ae6f47a94",
      "BusinessName": "Bar Cafe 222",
      "AddressLine2": "LONDON",
      "PostCode": "N13 5UD",
      "RatingValue": "1",
      "Geocode_Longitude": -0.108913,
      "Geocode_Latitude": 51.617039,
      "AddressLine3": ""
    },
    {
      "_id": "6399f72b71c0238ae6f47a97",
      "BusinessName": "Bar Cafeteria Cibo",
      "AddressLine2": "LONDON",
      "PostCode": "N14 6LG",
      "RatingValue": "4",
      "Geocode_Longitude": -0.122831,
      "Geocode_Latitude": 51.623863,
      "AddressLine3": ""
    },
    {
      "_id": "6399f72b71c0238ae6f47b0f",
      "BusinessName": "Bloqs Cafe",
      "AddressLine2": "LONDON",
      "PostCode": "N18 3QT",
      "RatingValue": "2",
      "Geocode_Longitude": -0.039778,
      "Geocode_Latitude": 51.608351,
      "AddressLine3": ""
    },
    {
      "_id": "6399f72b71c0238ae6f47b57",
      "BusinessName": "Borneo Cafe",
      "AddressLine2": "LONDON",
      "PostCode": "N13 4TN",
      "RatingValue": "4",
      "Geocode_Longitude": -0.11044099926948,
      "Geocode_Latitude": 51.6091232299805,
      "AddressLine3": ""
    },
    {
      "_id": "6399f72b71c0238ae6f47b63",
      "BusinessName": "Bounces Internet Cafe",
      "AddressLine2": "LONDON",
      "PostCode": "N9 8JE",
      "RatingValue": "5",
      "Geocode_Longitude": -0.052577,
      "Geocode_Latitude": 51.628537,
      "AddressLine3": ""
    },
    {
      "_id": "6399f72b71c0238ae6f47bed",
      "BusinessName": "Brunello's Cafe",
      "AddressLine2": "LONDON",
      "PostCode": "N21 3RX",
      "RatingValue": "5",
      "Geocode_Longitude": -0.096575,
      "Geocode_Latitude": 51.631245,
      "AddressLine3": ""
    },
    {
      "_id": "6399f72b71c0238ae6f47c65",
      "BusinessName": "Cafe Cristo",
      "AddressLine2": "LONDON",
      "PostCode": "N13 5XG",
      "RatingValue": "5",
      "Geocode_Longitude": -0.105061,
      "Geocode_Latitude": 51.622139,
      "AddressLine3": ""
    },
    {
      "_id": "6399f72b71c0238ae6f47c6e",
      "BusinessName": "Cafe Remy",
      "AddressLine2": "Bramley Road",
      "PostCode": "N14 4UW",
      "RatingValue": "4",
      "Geocode_Longitude": -0.131149,
      "Geocode_Latitude": 51.649264,
      "AddressLine3": "LONDON"
    },
    {
      "_id": "6399f72b71c0238ae6f47c71",
      "BusinessName": "Cafe Rouge",
      "AddressLine2": "LONDON",
      "PostCode": "N14 6LH",
      "RatingValue": "5",
      "Geocode_Longitude": -0.123114,
      "Geocode_Latitude": 51.624353,
      "AddressLine3": ""
    },
    {
      "_id": "6399f72b71c0238ae6f47c74",
      "BusinessName": "Cafe Venezia",
      "AddressLine2": "Chaseville Park Road",
      "PostCode": "N21 1PG",
      "RatingValue": "5",
      "Geocode_Longitude": -0.113231,
      "Geocode_Latitude": 51.643879,
      "AddressLine3": "LONDON"
    },
    {
      "_id": "6399f72b71c0238ae6f47d8b",
      "BusinessName": "Chunk of Green Cafe",
      "AddressLine2": "LONDON",
      "PostCode": "N14 5EH",
      "RatingValue": "4",
      "Geocode_Longitude": -0.12844,
      "Geocode_Latitude": 51.631146,
      "AddressLine3": ""
    },
    {
      "_id": "6399f72b71c0238ae6f47e72",
      "BusinessName": "Creams Cafe",
      "AddressLine2": "LONDON",
      "PostCode": "N14 5PH",
      "RatingValue": "5",
      "Geocode_Longitude": -0.1308474,
      "Geocode_Latitude": 51.6335069,
      "AddressLine3": ""
    },
    {
      "_id": "6399f72b71c0238ae6f47f41",
      "BusinessName": "Doms Cafe",
      "AddressLine2": "LONDON",
      "PostCode": "N13 4SP",
      "RatingValue": "3",
      "Geocode_Longitude": -0.109851,
      "Geocode_Latitude": 51.611515,
      "AddressLine3": ""
    },
    {
      "_id": "6399f72b71c0238ae6f47f98",
      "BusinessName": "Edmonton Station Cafe",
      "AddressLine2": "Church Street",
      "PostCode": "N9 9DX",
      "RatingValue": "4",
      "Geocode_Longitude": -0.061651,
      "Geocode_Latitude": 51.625126,
      "AddressLine3": "LONDON"
    },
    {
      "_id": "6399f72b71c0238ae6f47fb3",
      "BusinessName": "Ela Cafe",
      "AddressLine2": "LONDON",
      "PostCode": "N18 2NP",
      "RatingValue": "3",
      "Geocode_Longitude": -0.050642,
      "Geocode_Latitude": 51.618046,
      "AddressLine3": ""
    },
    {
      "_id": "6399f72b71c0238ae6f47fb9",
      "BusinessName": "Eley Cafe",
      "AddressLine2": "LONDON",
      "PostCode": "N18 3BH",
      "RatingValue": "4",
      "Geocode_Longitude": -0.04636999964714,
      "Geocode_Latitude": 51.6166191101074,
      "AddressLine3": ""
    },
    {
      "_id": "6399f72b71c0238ae6f48073",
      "BusinessName": "Euro Cafe",
      "AddressLine2": "Ridge Avenue",
      "PostCode": "N21 2AX",
      "RatingValue": "3",
      "Geocode_Longitude": -0.082417,
      "Geocode_Latitude": 51.636671,
      "AddressLine3": "LONDON"
    },
    {
      "_id": "6399f72b71c0238ae6f480a9",
      "BusinessName": "Fat Boys Cafe",
      "AddressLine2": "LONDON",
      "PostCode": "N9 0TY",
      "RatingValue": "4",
      "Geocode_Longitude": -0.058968,
      "Geocode_Latitude": 51.624704,
      "AddressLine3": ""
    },
    {
      "_id": "6399f72b71c0238ae6f48166",
      "BusinessName": "Gamberini Cafe and Grill",
      "AddressLine2": "LONDON",
      "PostCode": "N14 4XA",
      "RatingValue": "4",
      "Geocode_Longitude": -0.129186,
      "Geocode_Latitude": 51.648846,
      "AddressLine3": ""
    },
    {
      "_id": "6399f72b71c0238ae6f481de",
      "BusinessName": "Grand Cafe UK",
      "AddressLine2": "North Circular Road",
      "PostCode": "N13 6BG",
      "RatingValue": "3",
      "Geocode_Longitude": -0.109194,
      "Geocode_Latitude": 51.612017,
      "AddressLine3": "LONDON"
    },
    {
      "_id": "6399f72b71c0238ae6f482c5",
      "BusinessName": "Hertford Cafe and Restaurant",
      "AddressLine2": "LONDON",
      "PostCode": "N9 8AH",
      "RatingValue": "1",
      "Geocode_Longitude": -0.047561,
      "Geocode_Latitude": 51.639694,
      "AddressLine3": ""
    },
    {
      "_id": "6399f72b71c0238ae6f48340",
      "BusinessName": "Hot Works Cafe",
      "AddressLine2": "Centre Way",
      "PostCode": "N9 0AH",
      "RatingValue": "4",
      "Geocode_Longitude": -0.043864,
      "Geocode_Latitude": 51.62787,
      "AddressLine3": "LONDON"
    },
    {
      "_id": "6399f72b71c0238ae6f483f1",
      "BusinessName": "Joy Cafe",
      "AddressLine2": "Southgate Circus",
      "PostCode": "N14 6PH",
      "RatingValue": "4",
      "Geocode_Longitude": -0.126629,
      "Geocode_Latitude": 51.632322,
      "AddressLine3": "LONDON"
    },
    {
      "_id": "6399f72c71c0238ae6f4844b",
      "BusinessName": "Kervan Cafeteria",
      "AddressLine2": "LONDON",
      "PostCode": "N9 0PD",
      "RatingValue": "2",
      "Geocode_Longitude": -0.063151,
      "Geocode_Latitude": 51.619413,
      "AddressLine3": ""
    },
    {
      "_id": "6399f72c71c0238ae6f484fc",
      "BusinessName": "Lakis Cafe",
      "AddressLine2": "LONDON",
      "PostCode": "N13 4TD",
      "RatingValue": "5",
      "Geocode_Longitude": -0.110123,
      "Geocode_Latitude": 51.61017,
      "AddressLine3": ""
    },
    {
      "_id": "6399f72c71c0238ae6f48517",
      "BusinessName": "Latymer Cafe Ltd",
      "AddressLine2": "LONDON",
      "PostCode": "N9 9TP",
      "RatingValue": "4",
      "Geocode_Longitude": -0.073874,
      "Geocode_Latitude": 51.624446,
      "AddressLine3": ""
    },
    {
      "_id": "6399f72c71c0238ae6f48565",
      "BusinessName": "Lime's Cafe",
      "AddressLine2": "LONDON",
      "PostCode": "N21 2RS",
      "RatingValue": "4",
      "Geocode_Longitude": -0.093079,
      "Geocode_Latitude": 51.635011,
      "AddressLine3": ""
    },
    {
      "_id": "6399f72c71c0238ae6f4860d",
      "BusinessName": "Mario's Cafe",
      "AddressLine2": "LONDON",
      "PostCode": "N18 2XZ",
      "RatingValue": "3",
      "Geocode_Longitude": -0.066106,
      "Geocode_Latitude": 51.614471,
      "AddressLine3": ""
    },
    {
      "_id": "6399f72c71c0238ae6f48763",
      "BusinessName": "Mums Cafe",
      "AddressLine2": "LONDON",
      "PostCode": "N18 2LX",
      "RatingValue": "4",
      "Geocode_Longitude": -0.052196,
      "Geocode_Latitude": 51.6155,
      "AddressLine3": ""
    },
    {
      "_id": "6399f72c71c0238ae6f48802",
      "BusinessName": "Nightingale Cafe",
      "AddressLine2": "LONDON",
      "PostCode": "N9 8PP",
      "RatingValue": "5",
      "Geocode_Longitude": -0.044193,
      "Geocode_Latitude": 51.629953,
      "AddressLine3": ""
    },
    {
      "_id": "6399f72c71c0238ae6f488fe",
      "BusinessName": "Palmers Cafe",
      "AddressLine2": "LONDON",
      "PostCode": "N13 5TT",
      "RatingValue": "3",
      "Geocode_Longitude": -0.107201,
      "Geocode_Latitude": 51.618954,
      "AddressLine3": ""
    },
    {
      "_id": "6399f72c71c0238ae6f4894f",
      "BusinessName": "Pelican Cafe",
      "AddressLine2": "LONDON",
      "PostCode": "N14 4EY",
      "RatingValue": "3",
      "Geocode_Longitude": -0.134631,
      "Geocode_Latitude": 51.646838,
      "AddressLine3": ""
    },
    {
      "_id": "6399f72c71c0238ae6f48973",
      "BusinessName": "Piazza Cafe",
      "AddressLine2": "LONDON",
      "PostCode": "N13 4SP",
      "RatingValue": "3",
      "Geocode_Longitude": -0.109851,
      "Geocode_Latitude": 51.611515,
      "AddressLine3": ""
    },
    {
      "_id": "6399f72c71c0238ae6f48a87",
      "BusinessName": "Red Internet Cafe",
      "AddressLine2": "LONDON",
      "PostCode": "N13 4SP",
      "RatingValue": "4",
      "Geocode_Longitude": -0.109851,
      "Geocode_Latitude": 51.611515,
      "AddressLine3": ""
    },
    {
      "_id": "6399f72c71c0238ae6f48e8c",
      "BusinessName": "The Cafe at Chickenshed",
      "AddressLine2": "290 Chase Side",
      "PostCode": "N14 4PE",
      "RatingValue": "5",
      "Geocode_Longitude": -0.145442,
      "Geocode_Latitude": 51.644392,
      "AddressLine3": "LONDON"
    },
    {
      "_id": "6399f72c71c0238ae6f48ed4",
      "BusinessName": "The Friends Cafe",
      "AddressLine2": "Sterling Way",
      "PostCode": "N18 1QX",
      "RatingValue": "2",
      "Geocode_Longitude": -0.074353,
      "Geocode_Latitude": 51.613132,
      "AddressLine3": "LONDON"
    },
    {
      "_id": "6399f72c71c0238ae6f49087",
      "BusinessName": "Uncles Cafe",
      "AddressLine2": "LONDON",
      "PostCode": "N18 3BD",
      "RatingValue": "1",
      "Geocode_Longitude": -0.044932,
      "Geocode_Latitude": 51.614453,
      "AddressLine3": ""
    },
    {
      "_id": "6399f72c71c0238ae6f490ea",
      "BusinessName": "W H Smith Cafe",
      "AddressLine2": "Sterling Way",
      "PostCode": "N18 1QX",
      "RatingValue": "5",
      "Geocode_Longitude": -0.074353,
      "Geocode_Latitude": 51.613132,
      "AddressLine3": "LONDON"
    },
    {
      "_id": "6399f72c71c0238ae6f49108",
      "BusinessName": "Wanasa Arabic Cafe",
      "AddressLine2": "LONDON",
      "PostCode": "N21 2QS",
      "RatingValue": "5",
      "Geocode_Longitude": -0.094279,
      "Geocode_Latitude": 51.6347712,
      "AddressLine3": ""
    },
    {
      "_id": "6399f72c71c0238ae6f49129",
      "BusinessName": "Well Done Cafe",
      "AddressLine2": "LONDON",
      "PostCode": "N18 3PS",
      "RatingValue": "2",
      "Geocode_Longitude": -0.04793,
      "Geocode_Latitude": 51.617956,
      "AddressLine3": ""
    },
    {
      "_id": "6399f72c71c0238ae6f49189",
      "BusinessName": "Winchmore Hill Cafe",
      "AddressLine2": "LONDON",
      "PostCode": "N21 3RE",
      "RatingValue": "4",
      "Geocode_Longitude": -0.095793,
      "Geocode_Latitude": 51.631287,
      "AddressLine3": ""
    },
    {
      "_id": "6399f72a71c0238ae6f46d86",
      "BusinessName": "Papillon Cafe",
      "AddressLine2": "West Ealing",
      "AddressLine3": "London",
      "PostCode": "W13 9QT",
      "RatingValue": "2",
      "Geocode_Longitude": -0.31607300043106,
      "Geocode_Latitude": 51.5024032592773
    },
    {
      "_id": "6399f72a71c0238ae6f46ee2",
      "BusinessName": "Pregos Cafe",
      "AddressLine2": "Acton",
      "AddressLine3": "London",
      "PostCode": "W3 6BS",
      "RatingValue": "5",
      "Geocode_Longitude": -0.270507,
      "Geocode_Latitude": 51.508287
    },
    {
      "_id": "6399f72a71c0238ae6f46f7e",
      "BusinessName": "Ran Thai Cafe",
      "AddressLine2": "Hanwell",
      "AddressLine3": "London",
      "PostCode": "W7 3SL",
      "RatingValue": "3",
      "Geocode_Longitude": -0.3384830057621,
      "Geocode_Latitude": 51.5086059570313
    },
    {
      "_id": "6399f72a71c0238ae6f47002",
      "BusinessName": "Rosa's Thai Cafe",
      "AddressLine2": "Ealing",
      "AddressLine3": "London",
      "PostCode": "W5 2NX",
      "RatingValue": "5",
      "Geocode_Longitude": -0.30206799507141,
      "Geocode_Latitude": 51.5155754089355
    },
    {
      "_id": "6399f72d71c0238ae6f49852",
      "BusinessName": "Euro Cafe",
      "RatingValue": "5",
      "AddressLine3": "London",
      "PostCode": "",
      "Geocode_Longitude": 0.00958975616858,
      "Geocode_Latitude": 51.4631871137536
    },
    {
      "_id": "6399f72a71c0238ae6f4738c",
      "BusinessName": "Sunrise Cafe",
      "AddressLine2": "Acton",
      "AddressLine3": "London",
      "PostCode": "W3 7DD",
      "RatingValue": "3",
      "Geocode_Longitude": -0.24968500435352,
      "Geocode_Latitude": 51.5146598815918
    },
    {
      "_id": "6399f72b71c0238ae6f474b8",
      "BusinessName": "Thai Sisters Cafe",
      "AddressLine2": "Ealing",
      "AddressLine3": "London",
      "PostCode": "W5 1QY",
      "RatingValue": "4",
      "Geocode_Longitude": -0.316583,
      "Geocode_Latitude": 51.525701
    },
    {
      "_id": "6399f72b71c0238ae6f47560",
      "BusinessName": "The Garden Cafe",
      "AddressLine2": "West Ealing",
      "AddressLine3": "London",
      "PostCode": "W13 9SJ",
      "RatingValue": "2",
      "Geocode_Longitude": -0.31545400619507,
      "Geocode_Latitude": 51.5000305175781
    },
    {
      "_id": "6399f72b71c0238ae6f4769e",
      "BusinessName": "Tiramisu Cafe",
      "AddressLine2": "Ealing",
      "AddressLine3": "London",
      "PostCode": "W5 5ES",
      "RatingValue": "5",
      "Geocode_Longitude": -0.30545398592949,
      "Geocode_Latitude": 51.5074653625488
    },
    {
      "_id": "6399f72e71c0238ae6f4a8d2",
      "BusinessName": "2 and 4 Cafe",
      "AddressLine2": "2-4 Southgate Road",
      "AddressLine3": "London",
      "PostCode": "N1 3JJ",
      "RatingValue": "5",
      "Geocode_Longitude": -0.086089,
      "Geocode_Latitude": 51.537715
    },
    {
      "_id": "6399f72e71c0238ae6f4ac2f",
      "BusinessName": "Cafe Oto",
      "AddressLine2": "18-22 Ashwin Street",
      "AddressLine3": "London",
      "PostCode": "E8 3DL",
      "RatingValue": "4",
      "Geocode_Longitude": -0.074768,
      "Geocode_Latitude": 51.546972
    },
    {
      "_id": "6399f72e71c0238ae6f4ac38",
      "BusinessName": "Cafe Z",
      "AddressLine2": "5-25 Scrutton Street",
      "AddressLine3": "London",
      "PostCode": "EC2A 4HJ",
      "RatingValue": "5",
      "Geocode_Longitude": -0.08345,
      "Geocode_Latitude": 51.523626
    },
    {
      "_id": "6399f72e71c0238ae6f4adc4",
      "BusinessName": "Crystal Cafe",
      "AddressLine2": "48 Brooksbys Walk",
      "AddressLine3": "London",
      "PostCode": "E9 6DA",
      "RatingValue": "5",
      "Geocode_Longitude": -0.043378,
      "Geocode_Latitude": 51.551138
    },
    {
      "_id": "6399f72e71c0238ae6f4afa4",
      "BusinessName": "Finch Cafe",
      "AddressLine2": "12 Sidworth Street",
      "AddressLine3": "London",
      "PostCode": "E8 3SD",
      "RatingValue": "4",
      "Geocode_Longitude": -0.05762200057507,
      "Geocode_Latitude": 51.5392074584961
    },
    {
      "_id": "6399f72e71c0238ae6f4b211",
      "BusinessName": "Hoxton Beach Cafe",
      "AddressLine2": "63-67 Clissold Road",
      "AddressLine3": "London",
      "PostCode": "N16 9EX",
      "RatingValue": "5",
      "Geocode_Longitude": -0.084621,
      "Geocode_Latitude": 51.557897
    },
    {
      "_id": "6399f72e71c0238ae6f4b30a",
      "BusinessName": "Josephs Cafe Ltd",
      "AddressLine2": "137 Stoke Newington High Street",
      "AddressLine3": "London",
      "PostCode": "N16 0NY",
      "RatingValue": "3",
      "Geocode_Longitude": -0.074207,
      "Geocode_Latitude": 51.561279
    },
    {
      "_id": "6399f72f71c0238ae6f4b40f",
      "BusinessName": "La Casbah Cafe",
      "AddressLine2": "47 Blackstock Road",
      "AddressLine3": "London",
      "PostCode": "N4 2JF",
      "RatingValue": "5",
      "Geocode_Longitude": -0.103074,
      "Geocode_Latitude": 51.564087
    },
    {
      "_id": "6399f72f71c0238ae6f4b5e0",
      "BusinessName": "Mediterranean Cafe",
      "AddressLine2": "9A Blackstock Road",
      "AddressLine3": "London",
      "PostCode": "N4 2JF",
      "RatingValue": "2",
      "Geocode_Longitude": -0.103074,
      "Geocode_Latitude": 51.564087
    },
    {
      "_id": "6399f72f71c0238ae6f4b76c",
      "BusinessName": "Number One Cafe",
      "AddressLine2": "36-38 Well Street",
      "AddressLine3": "London",
      "PostCode": "E9 7PX",
      "RatingValue": "3",
      "Geocode_Longitude": -0.05375,
      "Geocode_Latitude": 51.539962
    },
    {
      "_id": "6399f72f71c0238ae6f4b886",
      "BusinessName": "Pitfield Cafe Limited",
      "AddressLine2": "31-35 Pitfield Street",
      "AddressLine3": "London",
      "PostCode": "N1 6HB",
      "RatingValue": "4",
      "Geocode_Longitude": -0.083849,
      "Geocode_Latitude": 51.527175
    },
    {
      "_id": "6399f72f71c0238ae6f4baed",
      "BusinessName": "Shepherdess Cafe",
      "AddressLine2": "221 City Road",
      "AddressLine3": "London",
      "PostCode": "EC1V 1JN",
      "RatingValue": "3",
      "Geocode_Longitude": -0.090682,
      "Geocode_Latitude": 51.528231
    },
    {
      "_id": "6399f72f71c0238ae6f4be71",
      "BusinessName": "The Premises Cafe and Bistro",
      "AddressLine2": "209 Hackney Road",
      "AddressLine3": "London",
      "PostCode": "E2 8JL",
      "RatingValue": "4",
      "Geocode_Longitude": -0.07357,
      "Geocode_Latitude": 51.530604
    },
    {
      "_id": "6399f72f71c0238ae6f4c027",
      "BusinessName": "Viet Hoa Cafe",
      "AddressLine2": "70-72 Kingsland Road",
      "AddressLine3": "London",
      "PostCode": "E2 8DP",
      "RatingValue": "5",
      "Geocode_Longitude": -0.077185,
      "Geocode_Latitude": 51.529656
    },
    {
      "_id": "6399f72f71c0238ae6f4c17a",
      "BusinessName": "Adams Cafe",
      "RatingValue": "1",
      "AddressLine2": "London",
      "PostCode": "W6 7LP",
      "Geocode_Longitude": -0.222311,
      "Geocode_Latitude": 51.497756
    },
    {
      "_id": "6399f72f71c0238ae6f4c17d",
      "BusinessName": "Adam's Cafe",
      "RatingValue": "5",
      "AddressLine2": "London",
      "PostCode": "W12 9AH",
      "Geocode_Longitude": -0.243386,
      "Geocode_Latitude": 51.504197
    },
    {
      "_id": "6399f72f71c0238ae6f4c1da",
      "BusinessName": "Allans Bakery And Cafe",
      "RatingValue": "3",
      "AddressLine2": "London",
      "PostCode": "W12 8LR",
      "Geocode_Longitude": -0.220969,
      "Geocode_Latitude": 51.50484
    },
    {
      "_id": "6399f72f71c0238ae6f4c1e0",
      "BusinessName": "Alma Cafe Ltd",
      "RatingValue": "5",
      "AddressLine2": "London",
      "PostCode": "W6 0DA",
      "Geocode_Longitude": -0.226199,
      "Geocode_Latitude": 51.493732
    },
    {
      "_id": "6399f72f71c0238ae6f4c303",
      "BusinessName": "Baba Salam Cafe",
      "RatingValue": "3",
      "AddressLine2": "London",
      "PostCode": "W12 8NR",
      "Geocode_Longitude": -0.231367,
      "Geocode_Latitude": 51.506084
    },
    {
      "_id": "6399f72f71c0238ae6f4c348",
      "BusinessName": "Beck's Cafe",
      "RatingValue": "3",
      "AddressLine2": "London",
      "PostCode": "NW10 6RT",
      "Geocode_Longitude": -0.244439,
      "Geocode_Latitude": 51.528529
    },
    {
      "_id": "6399f73071c0238ae6f4c3bd",
      "BusinessName": "Bloom Cafe",
      "RatingValue": "0",
      "AddressLine2": "London",
      "PostCode": "SW6 6TA",
      "Geocode_Longitude": -0.213624,
      "Geocode_Latitude": 51.47454
    },
    {
      "_id": "6399f73071c0238ae6f4c45c",
      "BusinessName": "Brown Cafe",
      "RatingValue": "2",
      "AddressLine2": "London",
      "PostCode": "W6 7PB",
      "Geocode_Longitude": -0.222856,
      "Geocode_Latitude": 51.497827
    },
    {
      "_id": "6399f73071c0238ae6f4c49e",
      "BusinessName": "Cafe",
      "RatingValue": "3",
      "AddressLine2": "London",
      "PostCode": "W12 7DA",
      "Geocode_Longitude": -0.2346,
      "Geocode_Latitude": 51.511556
    },
    {
      "_id": "6399f73071c0238ae6f4c4a4",
      "BusinessName": "Cafe 209 (Thai)",
      "RatingValue": "5",
      "AddressLine2": "London",
      "PostCode": "SW6 6BX",
      "Geocode_Longitude": -0.211988,
      "Geocode_Latitude": 51.479542
    },
    {
      "_id": "6399f73071c0238ae6f4c4aa",
      "BusinessName": "Cafe At West Six Garden Centre",
      "RatingValue": "5",
      "AddressLine2": "London",
      "PostCode": "W6 0SL",
      "Geocode_Longitude": -0.2376053,
      "Geocode_Latitude": 51.4942425
    },
    {
      "_id": "6399f73071c0238ae6f4c4b0",
      "BusinessName": "Cafe Brazil",
      "RatingValue": "5",
      "AddressLine2": "London",
      "PostCode": "SW6 1HH",
      "Geocode_Longitude": -0.19155,
      "Geocode_Latitude": 51.479984
    },
    {
      "_id": "6399f73071c0238ae6f4c4b3",
      "BusinessName": "Cafe Cino",
      "RatingValue": "4",
      "AddressLine2": "London",
      "PostCode": "W6 0RF",
      "Geocode_Longitude": -0.237457,
      "Geocode_Latitude": 51.493533
    },
    {
      "_id": "6399f73071c0238ae6f4c4b6",
      "BusinessName": "Cafe Continente",
      "RatingValue": "2",
      "AddressLine2": "London",
      "PostCode": "W14 9EP",
      "Geocode_Longitude": -0.207355,
      "Geocode_Latitude": 51.49118
    },
    {
      "_id": "6399f73071c0238ae6f4c4bc",
      "BusinessName": "Cafe Del Mundo",
      "RatingValue": "4",
      "AddressLine2": "London",
      "PostCode": "W14 8XJ",
      "Geocode_Longitude": -0.208411,
      "Geocode_Latitude": 51.495845
    },
    {
      "_id": "6399f73071c0238ae6f4c4bf",
      "BusinessName": "Cafe Delight",
      "RatingValue": "5",
      "AddressLine2": "London",
      "PostCode": "W14 9PP",
      "Geocode_Longitude": -0.205252,
      "Geocode_Latitude": 51.488612
    },
    {
      "_id": "6399f73071c0238ae6f4c4c2",
      "BusinessName": "Cafe Disney",
      "RatingValue": "5",
      "AddressLine2": "London",
      "PostCode": "W6 9PE",
      "Geocode_Longitude": -0.222707,
      "Geocode_Latitude": 51.491647
    },
    {
      "_id": "6399f73071c0238ae6f4c4c5",
      "BusinessName": "Cafe Latte",
      "RatingValue": "5",
      "AddressLine2": "London",
      "PostCode": "W12 8LH",
      "Geocode_Longitude": -0.227612,
      "Geocode_Latitude": 51.505579
    },
    {
      "_id": "6399f73071c0238ae6f4c4c8",
      "BusinessName": "Cafe Lina",
      "RatingValue": "3",
      "AddressLine2": "London",
      "PostCode": "SW6 2SG",
      "Geocode_Longitude": -0.186139,
      "Geocode_Latitude": 51.469334
    },
    {
      "_id": "6399f73071c0238ae6f4c4cb",
      "BusinessName": "Cafe Louche",
      "RatingValue": "5",
      "AddressLine2": "London",
      "PostCode": "W12 9AU",
      "Geocode_Longitude": -0.242337,
      "Geocode_Latitude": 51.502239
    },
    {
      "_id": "6399f73071c0238ae6f4c4d4",
      "BusinessName": "Cafe Ole",
      "RatingValue": "2",
      "AddressLine2": "London",
      "PostCode": "SW6 1QP",
      "Geocode_Longitude": -0.197846,
      "Geocode_Latitude": 51.482446
    },
    {
      "_id": "6399f73071c0238ae6f4c4d7",
      "BusinessName": "Cafe Paradiso",
      "RatingValue": "3",
      "AddressLine2": "London",
      "PostCode": "W14 0QL",
      "Geocode_Longitude": -0.213799,
      "Geocode_Latitude": 51.494003
    },
    {
      "_id": "6399f73071c0238ae6f4c4da",
      "BusinessName": "Cafe Plum",
      "RatingValue": "5",
      "AddressLine2": "London",
      "PostCode": "W6 9RL",
      "Geocode_Longitude": -0.227115,
      "Geocode_Latitude": 51.488692
    },
    {
      "_id": "6399f73071c0238ae6f4c690",
      "BusinessName": "Creams Cafe",
      "RatingValue": "5",
      "AddressLine2": "London",
      "PostCode": "W12 7JP",
      "Geocode_Longitude": -0.2256921,
      "Geocode_Latitude": 51.5054785
    },
    {
      "_id": "6399f73071c0238ae6f4c696",
      "BusinessName": "Credit Munch Cafe",
      "RatingValue": "5",
      "AddressLine2": "London",
      "PostCode": "W6 0QU",
      "Geocode_Longitude": -0.232831,
      "Geocode_Latitude": 51.492834
    },
    {
      "_id": "6399f73071c0238ae6f4c6d8",
      "BusinessName": "Dance Attic Cafe",
      "RatingValue": "5",
      "AddressLine2": "London",
      "PostCode": "SW6 1LY",
      "Geocode_Longitude": -0.199449,
      "Geocode_Latitude": 51.481266
    },
    {
      "_id": "6399f73071c0238ae6f4c708",
      "BusinessName": "Detour Cafe",
      "RatingValue": "2",
      "AddressLine2": "London",
      "PostCode": "W12 9AU",
      "Geocode_Longitude": -0.242337,
      "Geocode_Latitude": 51.502239
    },
    {
      "_id": "6399f73071c0238ae6f4c78f",
      "BusinessName": "Eatery Cafe",
      "RatingValue": "4",
      "AddressLine2": "London",
      "PostCode": "W6 0RX",
      "Geocode_Longitude": -0.244311,
      "Geocode_Latitude": 51.493618
    },
    {
      "_id": "6399f73071c0238ae6f4c798",
      "BusinessName": "Eden Cafe",
      "RatingValue": "3",
      "AddressLine2": "London",
      "PostCode": "W14 9NX",
      "Geocode_Longitude": -0.203566,
      "Geocode_Latitude": 51.486814
    },
    {
      "_id": "6399f73071c0238ae6f4c882",
      "BusinessName": "Fulham Cross Cafe",
      "RatingValue": "4",
      "AddressLine2": "London",
      "PostCode": "SW6 6BH",
      "Geocode_Longitude": -0.213409,
      "Geocode_Latitude": 51.482253
    },
    {
      "_id": "6399f73071c0238ae6f4c89a",
      "BusinessName": "Fulham House Cafe",
      "RatingValue": "5",
      "AddressLine2": "London",
      "PostCode": "SW6 5SH",
      "Geocode_Longitude": -0.209634,
      "Geocode_Latitude": 51.472726
    },
    {
      "_id": "6399f73071c0238ae6f4c8d6",
      "BusinessName": "Georges Cafe",
      "RatingValue": "5",
      "AddressLine2": "London",
      "PostCode": "W14 0HA",
      "Geocode_Longitude": -0.213128,
      "Geocode_Latitude": 51.497176
    },
    {
      "_id": "6399f73071c0238ae6f4c93f",
      "BusinessName": "Half Moon Cafe",
      "RatingValue": "5",
      "AddressLine2": "London",
      "PostCode": "W6 8JA",
      "Geocode_Longitude": -0.22266,
      "Geocode_Latitude": 51.488796
    },
    {
      "_id": "6399f73071c0238ae6f4cc1b",
      "BusinessName": "Liz Cafe",
      "RatingValue": "4",
      "AddressLine2": "London",
      "PostCode": "W12 8QQ",
      "Geocode_Longitude": -0.224466,
      "Geocode_Latitude": 51.502725
    },
    {
      "_id": "6399f73071c0238ae6f4cc66",
      "BusinessName": "Love Walk Cafe",
      "RatingValue": "4",
      "AddressLine2": "London",
      "PostCode": "SW6 1BH",
      "Geocode_Longitude": -0.198496,
      "Geocode_Latitude": 51.480586
    },
    {
      "_id": "6399f73071c0238ae6f4cd62",
      "BusinessName": "Miras Cafe",
      "RatingValue": "5",
      "AddressLine2": "London",
      "PostCode": "SW6 1NH",
      "Geocode_Longitude": -0.2012429,
      "Geocode_Latitude": 51.4834248
    },
    {
      "_id": "6399f73071c0238ae6f4cf33",
      "BusinessName": "Peterborough Cafe",
      "RatingValue": "3",
      "AddressLine2": "London",
      "PostCode": "SW6 3BN",
      "Geocode_Longitude": -0.199377,
      "Geocode_Latitude": 51.471751
    },
    {
      "_id": "6399f73071c0238ae6f4cfcf",
      "BusinessName": "Pottery Cafe",
      "RatingValue": "5",
      "AddressLine2": "London",
      "PostCode": "SW6 5UL",
      "Geocode_Longitude": -0.20186,
      "Geocode_Latitude": 51.477076
    },
    {
      "_id": "6399f73071c0238ae6f4d047",
      "BusinessName": "Rafaello Cafe",
      "RatingValue": "5",
      "AddressLine2": "London",
      "PostCode": "W6 0RF",
      "Geocode_Longitude": -0.237457,
      "Geocode_Latitude": 51.493533
    },
    {
      "_id": "6399f73071c0238ae6f4d077",
      "BusinessName": "Retro Sofas & Cafe",
      "RatingValue": "4",
      "AddressLine2": "London",
      "PostCode": "SW6 6BU",
      "Geocode_Longitude": -0.212229,
      "Geocode_Latitude": 51.479986
    },
    {
      "_id": "6399f73071c0238ae6f4d0b9",
      "BusinessName": "Rude Health Cafe",
      "RatingValue": "3",
      "AddressLine2": "London",
      "PostCode": "SW6 4NZ",
      "Geocode_Longitude": -0.209166,
      "Geocode_Latitude": 51.469589
    },
    {
      "_id": "6399f73071c0238ae6f4d1cd",
      "BusinessName": "So Souffle Cafe",
      "RatingValue": "5",
      "AddressLine2": "London",
      "PostCode": "SW6 5UL",
      "Geocode_Longitude": -0.2017795,
      "Geocode_Latitude": 51.4771023
    },
    {
      "_id": "6399f73071c0238ae6f4d21e",
      "BusinessName": "Star Cafe",
      "RatingValue": "2",
      "AddressLine2": "London",
      "PostCode": "W6 8NH",
      "Geocode_Longitude": -0.218287,
      "Geocode_Latitude": 51.485312
    },
    {
      "_id": "6399f73071c0238ae6f4d43b",
      "BusinessName": "The Magic Cafe",
      "RatingValue": "5",
      "AddressLine2": "London",
      "PostCode": "SW6 6TB",
      "Geocode_Longitude": -0.214318,
      "Geocode_Latitude": 51.475189
    },
    {
      "_id": "6399f73171c0238ae6f4d53a",
      "BusinessName": "V V Cafe",
      "RatingValue": "5",
      "AddressLine2": "London",
      "PostCode": "SW6 6BS",
      "Geocode_Longitude": -0.212872,
      "Geocode_Latitude": 51.480869
    },
    {
      "_id": "6399f73171c0238ae6f4e107",
      "BusinessName": "Lordship Lane Cafe",
      "AddressLine2": "Wood Green",
      "AddressLine3": "London",
      "PostCode": "N22 5DE",
      "RatingValue": "4",
      "Geocode_Longitude": -0.093058,
      "Geocode_Latitude": 51.598303
    },
    {
      "_id": "6399f73171c0238ae6f4e1e2",
      "BusinessName": "Menar Cafeteria",
      "AddressLine2": "Tottenham",
      "AddressLine3": "London",
      "PostCode": "N17 6UZ",
      "RatingValue": "4",
      "Geocode_Longitude": -0.072023,
      "Geocode_Latitude": 51.596188
    },
    {
      "_id": "6399f73171c0238ae6f4d62a",
      "BusinessName": "Zarathustra Cafe",
      "RatingValue": "3",
      "AddressLine2": "London",
      "PostCode": "W14 0AS",
      "Geocode_Longitude": -0.217264,
      "Geocode_Latitude": 51.501564
    },
    {
      "_id": "6399f73171c0238ae6f4d651",
      "BusinessName": "3 Points Cafe",
      "AddressLine2": "Tottenham",
      "AddressLine3": "London",
      "PostCode": "N17 0DH",
      "RatingValue": "4",
      "Geocode_Longitude": -0.067796,
      "Geocode_Latitude": 51.605614
    },
    {
      "_id": "6399f73171c0238ae6f4e2b3",
      "BusinessName": "N4 Cafe",
      "AddressLine2": "Hornsey",
      "AddressLine3": "London",
      "PostCode": "N4 1DZ",
      "RatingValue": "5",
      "Geocode_Longitude": -0.098785,
      "Geocode_Latitude": 51.575942
    },
    {
      "_id": "6399f73171c0238ae6f4e30d",
      "BusinessName": "Nicosia Cafe",
      "AddressLine2": "Wood Green",
      "AddressLine3": "London",
      "PostCode": "N22 8NE",
      "RatingValue": "4",
      "Geocode_Longitude": -0.117922,
      "Geocode_Latitude": 51.60633
    },
    {
      "_id": "6399f73171c0238ae6f4e379",
      "BusinessName": "Orfe Cafe",
      "AddressLine2": "Tottenham",
      "AddressLine3": "London",
      "PostCode": "N17 0SP",
      "RatingValue": "3",
      "Geocode_Longitude": -0.05431881214711,
      "Geocode_Latitude": 51.6052642400999
    },
    {
      "_id": "6399f73171c0238ae6f4e3f1",
      "BusinessName": "Paradise Cafe",
      "AddressLine2": "Wood Green",
      "AddressLine3": "London",
      "PostCode": "N22 5DJ",
      "RatingValue": "5",
      "Geocode_Longitude": -0.094746,
      "Geocode_Latitude": 51.59798
    },
    {
      "_id": "6399f73171c0238ae6f4e406",
      "BusinessName": "Park View Cafe",
      "AddressLine2": "Hornsey",
      "AddressLine3": "London",
      "PostCode": "N4 1BZ",
      "RatingValue": "4",
      "Geocode_Longitude": -0.103233,
      "Geocode_Latitude": 51.570478
    },
    {
      "_id": "6399f73171c0238ae6f4d6e7",
      "BusinessName": "Angels Cafe",
      "AddressLine2": "Hornsey",
      "AddressLine3": "London",
      "PostCode": "N4 3ES",
      "RatingValue": "4",
      "Geocode_Longitude": -0.108096,
      "Geocode_Latitude": 51.567208
    },
    {
      "_id": "6399f73271c0238ae6f4e4ab",
      "BusinessName": "Plovdiv Cafe",
      "AddressLine2": "Tottenham",
      "AddressLine3": "London",
      "PostCode": "N8 0SJ",
      "RatingValue": "5",
      "Geocode_Longitude": -0.100752,
      "Geocode_Latitude": 51.587268
    },
    {
      "_id": "6399f73171c0238ae6f4d816",
      "BusinessName": "Blighty India Cafe",
      "AddressLine2": "Tottenham",
      "AddressLine3": "London",
      "PostCode": "N15 4AJ",
      "RatingValue": "2",
      "Geocode_Longitude": -0.071371,
      "Geocode_Latitude": 51.585665
    },
    {
      "_id": "6399f73171c0238ae6f4d81c",
      "BusinessName": "Blooming Scent Cafe",
      "AddressLine2": "Tottenham",
      "AddressLine3": "London",
      "PostCode": "N17 8AA",
      "RatingValue": "3",
      "Geocode_Longitude": -0.06836,
      "Geocode_Latitude": 51.599472
    },
    {
      "_id": "6399f73171c0238ae6f4d82b",
      "BusinessName": "Bob's Cafe",
      "AddressLine2": "Hornsey",
      "AddressLine3": "London",
      "PostCode": "N10 3HA",
      "RatingValue": "5",
      "Geocode_Longitude": -0.144834,
      "Geocode_Latitude": 51.589862
    },
    {
      "_id": "6399f73171c0238ae6f4d89a",
      "BusinessName": "Brothers Cafe &  Restaurant",
      "AddressLine2": "Tottenham",
      "AddressLine3": "London",
      "PostCode": "N17 9SY",
      "RatingValue": "3",
      "Geocode_Longitude": -0.068822,
      "Geocode_Latitude": 51.595065
    },
    {
      "_id": "6399f73171c0238ae6f4d8f7",
      "BusinessName": "Cafe Cooks",
      "AddressLine2": "Hornsey",
      "AddressLine3": "London",
      "PostCode": "N6 4ER",
      "RatingValue": "5",
      "Geocode_Longitude": -0.149027,
      "Geocode_Latitude": 51.578337
    },
    {
      "_id": "6399f73171c0238ae6f4d900",
      "BusinessName": "Cafe Life (North London Comm Hse)",
      "AddressLine2": "Tottenham",
      "AddressLine3": "London",
      "PostCode": "N17 6PY",
      "RatingValue": "3",
      "Geocode_Longitude": -0.070954,
      "Geocode_Latitude": 51.59314
    },
    {
      "_id": "6399f73171c0238ae6f4d903",
      "BusinessName": "Cafe Marina",
      "AddressLine2": "Tottenham",
      "AddressLine3": "London",
      "PostCode": "N17 6XF",
      "RatingValue": "3",
      "Geocode_Longitude": -0.078715,
      "Geocode_Latitude": 51.598078
    },
    {
      "_id": "6399f73171c0238ae6f4d906",
      "BusinessName": "Cafe Mila",
      "AddressLine2": "Tottenham",
      "AddressLine3": "London",
      "PostCode": "N17 6UZ",
      "RatingValue": "5",
      "Geocode_Longitude": -0.072023,
      "Geocode_Latitude": 51.596188
    },
    {
      "_id": "6399f73171c0238ae6f4d90f",
      "BusinessName": "Cafe Ora",
      "AddressLine2": "Hornsey",
      "AddressLine3": "London",
      "PostCode": "N8 0RG",
      "RatingValue": "5",
      "Geocode_Longitude": -0.100367,
      "Geocode_Latitude": 51.584024
    },
    {
      "_id": "6399f73171c0238ae6f4d912",
      "BusinessName": "Cafe Seven",
      "AddressLine2": "Tottenham",
      "AddressLine3": "London",
      "PostCode": "N15 6EP",
      "RatingValue": "5",
      "Geocode_Longitude": -0.082143,
      "Geocode_Latitude": 51.578729
    },
    {
      "_id": "6399f73171c0238ae6f4d9de",
      "BusinessName": "Cherry Tree Cafe",
      "AddressLine2": "Hornsey",
      "AddressLine3": "London",
      "PostCode": "N10 3JB",
      "RatingValue": "4",
      "Geocode_Longitude": -0.13807950661106,
      "Geocode_Latitude": 51.5895773243102
    },
    {
      "_id": "6399f73171c0238ae6f4da2f",
      "BusinessName": "Cilicia Cafe Restaurant",
      "AddressLine2": "Hornsey",
      "AddressLine3": "London",
      "PostCode": "N10 1BS",
      "RatingValue": "3",
      "Geocode_Longitude": -0.14299,
      "Geocode_Latitude": 51.592584
    },
    {
      "_id": "6399f73171c0238ae6f4daec",
      "BusinessName": "Crocodile Gallery Cafe",
      "AddressLine2": "Hornsey",
      "AddressLine3": "London",
      "PostCode": "N10 3RU",
      "RatingValue": "5",
      "Geocode_Longitude": -0.14361,
      "Geocode_Latitude": 51.59013
    },
    {
      "_id": "6399f73271c0238ae6f4e51a",
      "BusinessName": "Purple Cafe Restaurant",
      "AddressLine2": "Wood Green",
      "AddressLine3": "London",
      "PostCode": "N22 8JA",
      "RatingValue": "5",
      "Geocode_Longitude": -0.112107,
      "Geocode_Latitude": 51.604483
    },
    {
      "_id": "6399f73171c0238ae6f4db6d",
      "BusinessName": "Dem Cafe",
      "AddressLine2": "Tottenham",
      "AddressLine3": "London",
      "PostCode": "N15 4HL",
      "RatingValue": "4",
      "Geocode_Longitude": -0.084091,
      "Geocode_Latitude": 51.588014
    },
    {
      "_id": "6399f73271c0238ae6f4e571",
      "BusinessName": "Ridge Cafe",
      "AddressLine2": "Hornsey",
      "AddressLine3": "London",
      "PostCode": "N8 9BG",
      "RatingValue": "5",
      "Geocode_Longitude": -0.116886,
      "Geocode_Latitude": 51.583212
    },
    {
      "_id": "6399f73271c0238ae6f4e59e",
      "BusinessName": "Rose Cafe",
      "AddressLine2": "Tottenham",
      "AddressLine3": "London",
      "PostCode": "N15 4HH",
      "RatingValue": "4",
      "Geocode_Longitude": -0.080538,
      "Geocode_Latitude": 51.589089
    },
    {
      "_id": "6399f73271c0238ae6f4e5a1",
      "BusinessName": "Rose Cafe",
      "AddressLine2": "Tottenham",
      "AddressLine3": "London",
      "PostCode": "N15 3PA",
      "RatingValue": "5",
      "Geocode_Longitude": -0.091192,
      "Geocode_Latitude": 51.585989
    },
    {
      "_id": "6399f73171c0238ae6f4dc18",
      "BusinessName": "Elsie's Cafe",
      "AddressLine2": "Hornsey",
      "AddressLine3": "London",
      "PostCode": "N8 7RD",
      "RatingValue": "5",
      "Geocode_Longitude": -0.124043,
      "Geocode_Latitude": 51.587103
    },
    {
      "_id": "6399f73171c0238ae6f4dc21",
      "BusinessName": "Enjoy Cafe",
      "AddressLine2": "Tottenham",
      "AddressLine3": "London",
      "PostCode": "N17 9JB",
      "RatingValue": "3",
      "Geocode_Longitude": -0.069648,
      "Geocode_Latitude": 51.591599
    },
    {
      "_id": "6399f73171c0238ae6f4dc3c",
      "BusinessName": "Euro Cafe",
      "AddressLine2": "Tottenham",
      "AddressLine3": "London",
      "PostCode": "N17 0EY",
      "RatingValue": "5",
      "Geocode_Longitude": -0.067839,
      "Geocode_Latitude": 51.607
    },
    {
      "_id": "6399f73171c0238ae6f4dc81",
      "BusinessName": "Fatisa Cafe Pizzeria",
      "AddressLine2": "Wood Green",
      "AddressLine3": "London",
      "PostCode": "N22 8JZ",
      "RatingValue": "4",
      "Geocode_Longitude": -0.11157,
      "Geocode_Latitude": 51.601039
    },
    {
      "_id": "6399f73171c0238ae6f4dd35",
      "BusinessName": "Genet Cafe",
      "AddressLine2": "Tottenham",
      "AddressLine3": "London",
      "PostCode": "N15 4PS",
      "RatingValue": "4",
      "Geocode_Longitude": -0.066733,
      "Geocode_Latitude": 51.584069
    },
    {
      "_id": "6399f73171c0238ae6f4dd62",
      "BusinessName": "Golden Beans Cafe",
      "AddressLine2": "Tottenham",
      "AddressLine3": "London",
      "PostCode": "N15 5AJ",
      "RatingValue": "5",
      "Geocode_Longitude": -0.083776,
      "Geocode_Latitude": 51.586579
    },
    {
      "_id": "6399f73171c0238ae6f4dd68",
      "BusinessName": "Golden Cafe",
      "AddressLine2": "Wood Green",
      "AddressLine3": "London",
      "PostCode": "N22 5JH",
      "RatingValue": "5",
      "Geocode_Longitude": -0.102228,
      "Geocode_Latitude": 51.599306
    },
    {
      "_id": "6399f73171c0238ae6f4dd9b",
      "BusinessName": "Green Garden Cafe",
      "AddressLine2": "Hornsey",
      "AddressLine3": "London",
      "PostCode": "N8 7NX",
      "RatingValue": "5",
      "Geocode_Longitude": -0.119485,
      "Geocode_Latitude": 51.587381
    },
    {
      "_id": "6399f73171c0238ae6f4ddaa",
      "BusinessName": "Greenhill Cafe",
      "AddressLine2": "Hornsey",
      "AddressLine3": "London",
      "PostCode": "N8 7PB",
      "RatingValue": "5",
      "Geocode_Longitude": -0.120824,
      "Geocode_Latitude": 51.587115
    },
    {
      "_id": "6399f73271c0238ae6f4e730",
      "BusinessName": "Sunrise Cafe",
      "AddressLine2": "Wood Green",
      "AddressLine3": "London",
      "PostCode": "N11 2EU",
      "RatingValue": "5",
      "Geocode_Longitude": -0.126501,
      "Geocode_Latitude": 51.608419
    },
    {
      "_id": "6399f73171c0238ae6f4de70",
      "BusinessName": "Highgate Cafe",
      "AddressLine2": "Hornsey",
      "AddressLine3": "London",
      "PostCode": "N6 5AA",
      "RatingValue": "4",
      "Geocode_Longitude": -0.146348,
      "Geocode_Latitude": 51.577116
    },
    {
      "_id": "6399f73171c0238ae6f4dec4",
      "BusinessName": "Hot Milk Cafe",
      "AddressLine2": "Wood Green",
      "AddressLine3": "London",
      "PostCode": "N11 2TR",
      "RatingValue": "5",
      "Geocode_Longitude": -0.1240137,
      "Geocode_Latitude": 51.6075808
    },
    {
      "_id": "6399f73171c0238ae6f4df45",
      "BusinessName": "Jacks Cafe'",
      "AddressLine2": "Tottenham",
      "AddressLine3": "London",
      "PostCode": "N17 0JT",
      "RatingValue": "4",
      "Geocode_Longitude": -0.065961,
      "Geocode_Latitude": 51.602266
    },
    {
      "_id": "6399f73171c0238ae6f4df7e",
      "BusinessName": "Juba Cafe",
      "AddressLine2": "Tottenham",
      "AddressLine3": "London",
      "PostCode": "N17 6UR",
      "RatingValue": "1",
      "Geocode_Longitude": -0.070724,
      "Geocode_Latitude": 51.595168
    },
    {
      "_id": "6399f73271c0238ae6f4e8b9",
      "BusinessName": "The Palace Cafe",
      "AddressLine2": "Hornsey",
      "AddressLine3": "London",
      "PostCode": "N8 9BT",
      "RatingValue": "4",
      "Geocode_Longitude": -0.119589,
      "Geocode_Latitude": 51.582059
    },
    {
      "_id": "6399f73271c0238ae6f4e9a0",
      "BusinessName": "Tower Cafe",
      "AddressLine2": "Tottenham",
      "AddressLine3": "London",
      "PostCode": "N17 7QY",
      "RatingValue": "4",
      "Geocode_Longitude": -0.090423,
      "Geocode_Latitude": 51.598134
    },
    {
      "_id": "6399f73271c0238ae6f4ea87",
      "BusinessName": "Wightman Road Cafe",
      "AddressLine2": "Hornsey",
      "AddressLine3": "London",
      "PostCode": "N8 0LT",
      "RatingValue": "5",
      "Geocode_Longitude": -0.109227,
      "Geocode_Latitude": 51.588295
    },
    {
      "_id": "6399f73271c0238ae6f4eb0e",
      "BusinessName": "Zappzaa Thai Cafe",
      "AddressLine2": "Hornsey",
      "AddressLine3": "London",
      "PostCode": "N8 7NU",
      "RatingValue": "5",
      "Geocode_Longitude": -0.117311,
      "Geocode_Latitude": 51.587589
    },
    {
      "_id": "6399f73971c0238ae6f56149",
      "BusinessName": "Lots Road Cafe Limited",
      "AddressLine2": "531-533 King's Road",
      "PostCode": "SW10 0TZ",
      "RatingValue": "5",
      "Geocode_Longitude": -0.185275,
      "Geocode_Latitude": 51.480228,
      "AddressLine3": "LONDON"
    },
    {
      "_id": "6399f73971c0238ae6f5614f",
      "BusinessName": "Lounge Cafe",
      "AddressLine2": "LONDON",
      "PostCode": "W8 5SA",
      "RatingValue": "4",
      "Geocode_Longitude": -0.191669,
      "Geocode_Latitude": 51.500255,
      "AddressLine3": ""
    },
    {
      "_id": "6399f73a71c0238ae6f56269",
      "BusinessName": "Mike's Cafe",
      "AddressLine2": "LONDON",
      "PostCode": "W11 1NN",
      "RatingValue": "5",
      "Geocode_Longitude": -0.205664,
      "Geocode_Latitude": 51.51591,
      "AddressLine3": ""
    },
    {
      "_id": "6399f73a71c0238ae6f56290",
      "BusinessName": "Mona Lisa Cafe",
      "AddressLine2": "LONDON",
      "PostCode": "SW10 0LR",
      "RatingValue": "3",
      "Geocode_Longitude": -0.177992,
      "Geocode_Latitude": 51.48267,
      "AddressLine3": ""
    },
    {
      "_id": "6399f73a71c0238ae6f56299",
      "BusinessName": "Montparnasse Cafe",
      "AddressLine2": "LONDON",
      "PostCode": "W8 5ET",
      "RatingValue": "2",
      "Geocode_Longitude": -0.188546,
      "Geocode_Latitude": 51.500531,
      "AddressLine3": ""
    },
    {
      "_id": "6399f73a71c0238ae6f562c0",
      "BusinessName": "Mr Christians Cafe @ Brand Of Museums",
      "AddressLine2": "111-117 Lancaster Road",
      "PostCode": "",
      "RatingValue": "4",
      "Geocode_Longitude": -0.3553057,
      "Geocode_Latitude": 51.5510877,
      "AddressLine3": "LONDON"
    },
    {
      "_id": "6399f73a71c0238ae6f56335",
      "BusinessName": "New Horizons Cafe",
      "AddressLine2": "Cadogan Street",
      "PostCode": "SW3 2PF",
      "RatingValue": "5",
      "Geocode_Longitude": -0.163278,
      "Geocode_Latitude": 51.492188,
      "AddressLine3": "LONDON"
    },
    {
      "_id": "6399f73a71c0238ae6f56374",
      "BusinessName": "Oasis Cafe",
      "AddressLine2": "LONDON",
      "PostCode": "W10 5DB",
      "RatingValue": "3",
      "Geocode_Longitude": -0.211389,
      "Geocode_Latitude": 51.526141,
      "AddressLine3": ""
    },
    {
      "_id": "6399f73a71c0238ae6f563bc",
      "BusinessName": "Orange Cafe",
      "AddressLine2": "LONDON",
      "PostCode": "W10 5NE",
      "RatingValue": "2",
      "Geocode_Longitude": -0.209786,
      "Geocode_Latitude": 51.517385,
      "AddressLine3": ""
    },
    {
      "_id": "6399f73a71c0238ae6f563e0",
      "BusinessName": "Orsini Cafe",
      "AddressLine2": "LONDON",
      "PostCode": "SW7 2RX",
      "RatingValue": "3",
      "Geocode_Longitude": -0.169933,
      "Geocode_Latitude": 51.496177,
      "AddressLine3": ""
    },
    {
      "_id": "6399f73a71c0238ae6f563fb",
      "BusinessName": "Palace Cafe",
      "AddressLine2": "Palace Green",
      "PostCode": "W8 4PX",
      "RatingValue": "5",
      "Geocode_Longitude": -0.188499,
      "Geocode_Latitude": 51.504972,
      "AddressLine3": "LONDON"
    },
    {
      "_id": "6399f73a71c0238ae6f56482",
      "BusinessName": "Petit Cafe",
      "AddressLine2": "281 Portobello Road",
      "PostCode": "W10 5TZ",
      "RatingValue": "3",
      "Geocode_Longitude": -0.207494,
      "Geocode_Latitude": 51.518833,
      "AddressLine3": "LONDON"
    },
    {
      "_id": "6399f73a71c0238ae6f5650c",
      "BusinessName": "Portobello Juice Cafe",
      "AddressLine2": "LONDON",
      "PostCode": "W10 5TD",
      "RatingValue": "3",
      "Geocode_Longitude": -0.207811,
      "Geocode_Latitude": 51.519225,
      "AddressLine3": ""
    },
    {
      "_id": "6399f73a71c0238ae6f565db",
      "BusinessName": "Rich Cafe",
      "AddressLine2": "LONDON",
      "PostCode": "",
      "RatingValue": "5",
      "Geocode_Longitude": -0.2912095,
      "Geocode_Latitude": 51.4192322,
      "AddressLine3": ""
    },
    {
      "_id": "6399f73a71c0238ae6f565ed",
      "BusinessName": "Romulo Cafe London",
      "AddressLine2": "LONDON",
      "PostCode": "W8 6NW",
      "RatingValue": "3",
      "Geocode_Longitude": -0.203062,
      "Geocode_Latitude": 51.497436,
      "AddressLine3": ""
    },
    {
      "_id": "6399f73a71c0238ae6f5660b",
      "BusinessName": "Royal Court Theatre Bar Cafe",
      "AddressLine2": "Sloane Square",
      "PostCode": "SW1W 8AS",
      "RatingValue": "5",
      "Geocode_Longitude": -0.156418,
      "Geocode_Latitude": 51.492629,
      "AddressLine3": "LONDON"
    },
    {
      "_id": "6399f73a71c0238ae6f56626",
      "BusinessName": "SAF Cafe",
      "AddressLine2": "Imperial College Road",
      "PostCode": "SW7 2AZ",
      "RatingValue": "5",
      "Geocode_Longitude": -0.17823,
      "Geocode_Latitude": 51.500514,
      "AddressLine3": "LONDON"
    },
    {
      "_id": "6399f73a71c0238ae6f56674",
      "BusinessName": "Saraya Cafe",
      "AddressLine2": "LONDON",
      "PostCode": "SW3 1NY",
      "RatingValue": "4",
      "Geocode_Longitude": -0.165405,
      "Geocode_Latitude": 51.497707,
      "AddressLine3": ""
    },
    {
      "_id": "6399f73a71c0238ae6f566b3",
      "BusinessName": "Shoty Ltd Georgian Cafe & Restaurant",
      "AddressLine2": "30 Old Brompton Road",
      "PostCode": "SW7 3DL",
      "RatingValue": "4",
      "Geocode_Longitude": -0.1753,
      "Geocode_Latitude": 51.493805,
      "AddressLine3": "LONDON"
    },
    {
      "_id": "6399f73a71c0238ae6f56779",
      "BusinessName": "St Charles Cafe",
      "AddressLine2": "Exmoor Street",
      "PostCode": "W10 6DZ",
      "RatingValue": "5",
      "Geocode_Longitude": -0.2173988,
      "Geocode_Latitude": 51.5223693,
      "AddressLine3": "LONDON"
    },
    {
      "_id": "6399f73a71c0238ae6f5678b",
      "BusinessName": "St John's Cafe",
      "AddressLine2": "Lansdowne Crescent",
      "PostCode": "W11 2NN",
      "RatingValue": "5",
      "Geocode_Longitude": -0.206645,
      "Geocode_Latitude": 51.510727,
      "AddressLine3": "LONDON"
    },
    {
      "_id": "6399f73a71c0238ae6f5685d",
      "BusinessName": "Tastebuds Cafe & Sandwich Bar",
      "AddressLine2": "LONDON",
      "PostCode": "W10 6QL",
      "RatingValue": "4",
      "Geocode_Longitude": -0.227606,
      "Geocode_Latitude": 51.51985,
      "AddressLine3": ""
    },
    {
      "_id": "6399f73a71c0238ae6f56905",
      "BusinessName": "The Coffee Cup Cafe",
      "AddressLine2": "LONDON",
      "PostCode": "W10 6QL",
      "RatingValue": "3",
      "Geocode_Longitude": -0.227606,
      "Geocode_Latitude": 51.51985,
      "AddressLine3": ""
    },
    {
      "_id": "6399f73a71c0238ae6f56923",
      "BusinessName": "The Dayrooms Cafe",
      "AddressLine2": "LONDON",
      "PostCode": "W11 1NR",
      "RatingValue": "1",
      "Geocode_Longitude": -0.206083,
      "Geocode_Latitude": 51.516249,
      "AddressLine3": ""
    },
    {
      "_id": "6399f73a71c0238ae6f5696e",
      "BusinessName": "The Hill Cafe",
      "AddressLine2": "LONDON",
      "PostCode": "W2 4EL",
      "RatingValue": "5",
      "Geocode_Longitude": -0.193194,
      "Geocode_Latitude": 51.511618,
      "AddressLine3": ""
    },
    {
      "_id": "6399f73a71c0238ae6f569e9",
      "BusinessName": "The Physic Garden Cafe",
      "AddressLine2": "LONDON",
      "PostCode": "SW3 4HS",
      "RatingValue": "5",
      "Geocode_Longitude": -0.163424,
      "Geocode_Latitude": 51.484277,
      "AddressLine3": ""
    },
    {
      "_id": "6399f73a71c0238ae6f56a04",
      "BusinessName": "The Roof Cafe",
      "AddressLine2": "LONDON",
      "PostCode": "W8 5NP",
      "RatingValue": "2",
      "Geocode_Longitude": -0.188299,
      "Geocode_Latitude": 51.502055,
      "AddressLine3": ""
    },
    {
      "_id": "6399f73a71c0238ae6f56a43",
      "BusinessName": "The Vernon Cafe",
      "AddressLine2": "LONDON",
      "PostCode": "W11 2DY",
      "RatingValue": "4",
      "Geocode_Longitude": -0.204074,
      "Geocode_Latitude": 51.514186,
      "AddressLine3": ""
    },
    {
      "_id": "6399f73a71c0238ae6f56a7f",
      "BusinessName": "Trading as Buzz Cafe",
      "AddressLine2": "Exmoor Street",
      "PostCode": "W10 6DZ",
      "RatingValue": "5",
      "Geocode_Longitude": -0.217428,
      "Geocode_Latitude": 51.522446,
      "AddressLine3": "LONDON"
    },
    {
      "_id": "6399f73a71c0238ae6f56ae2",
      "BusinessName": "Verve Pet Boutique & Cafe",
      "AddressLine2": "179 Westbourne Grove",
      "PostCode": "W11 2SB",
      "RatingValue": "5",
      "Geocode_Longitude": -0.198368,
      "Geocode_Latitude": 51.514512,
      "AddressLine3": "LONDON"
    },
    {
      "_id": "6399f73971c0238ae6f556ea",
      "BusinessName": "202 Cafe",
      "AddressLine2": "LONDON",
      "PostCode": "W11 2RH",
      "RatingValue": "5",
      "Geocode_Longitude": -0.200558,
      "Geocode_Latitude": 51.514537,
      "AddressLine3": ""
    },